timestep,sim_simulation_time,sim_dt_physics,sim_battery_age_factor,sim_battery_time_accel,sim_speed,sim_throttle,sim_front_rpm,sim_rear_rpm,sim_range,sim_battery_degradation,sim_battery_soh,sim_battery_temp,sim_battery_temp_std,sim_battery_soc,sim_battery_curr,sim_battery_cooling_temp,carla_steering,carla_roll,carla_pitch,carla_yaw,carla_env_temp,carla_traffic_light,P_pack_W,C_rate,P_loss_W,E_kWh_cum,distance_km_cum,Wh_per_km_mask,Wh_per_km_inst,Wh_per_km_rolling_mask,Wh_per_km_rolling,T_hot_proxy
2.645596221089363,0.05,0.05,5,5.162790214343387,0.0,0.0,0.0,0.0,500.0,0.0046082993641105,0.9953917006358894,25.0,5.99182245303757e-14,1.0,-2.306056791078894e-06,25.004999999999995,0.1500000059604644,0.0,0.0,179.999755859375,40.07240293510149,0,-0.0010635849043113465,4.045713668559463e-08,4.574987583742834e-14,-1.4772012559879814e-11,0.0,0.0,0.0,1.0,0.0,25.000000319075472
2.695596221834421,0.1,0.05,5,5.162793107861905,0.0,0.0,0.0,0.0,500.0,0.0046083004771719,0.995391699522828,25.00000208371773,5.99182245303757e-14,0.9999999999996853,-2.306056791090157e-06,25.00501017603858,0.0129151754081249,0.0,0.0,179.999755859375,40.07240293510149,0,-0.001063584904321736,4.0457136685792225e-08,4.574987605949519e-14,-2.9544025119903926e-11,0.0,0.0,0.0,1.0,-1.4772012560024112e-08,25.000002402793204
2.745596222579479,0.15,0.05,5,5.162796001380428,0.0,0.0,0.0,0.0,500.0,0.0046083015902702,0.9953916984097296,25.00000416807984,5.99182245303757e-14,0.9999999999993712,-2.306056791101424e-06,25.005019876139272,0.0576860681176185,0.0,0.0,179.999755859375,40.07240293510149,0,-0.0010635849043321292,4.0457136685989895e-08,4.574987628163076e-14,-4.4316037680072384e-11,0.0,0.0,0.0,1.0,-2.9544025120192573e-08,25.000004487155312
2.7955962233245373,0.2,0.0499999999999999,5,5.162798894898946,0.0,0.0,0.0,0.0,500.0,0.0046083027033947,0.9953916972966051,25.000006252899997,5.99182245303757e-14,0.999999999999057,-2.306056791112693e-06,25.00502912178337,0.0576860681176185,0.0,0.0,179.999755859375,40.07240293510149,0,-0.001063584904342524,4.04571366861876e-08,4.57498765038151e-14,-5.908805024038519e-11,0.0,0.0,0.0,1.0,-4.4316037680505376e-08,25.00000657197547
2.845596224069596,0.25,0.0499999999999999,5,5.1628017884174655,0.0,0.0,0.0,0.0,500.0,0.0046083038165346,0.9953916961834652,25.000008337992654,5.99182245303757e-14,0.9999999999987428,-2.306056791123964e-06,25.00503794557062,0.0576860681176185,0.0,0.0,179.999755859375,40.07240293510149,0,-0.0010635849043529205,4.0457136686385334e-08,4.574987672602852e-14,-7.38600628008424e-11,0.0,0.0,0.0,1.0,-5.9088050240962585e-08,25.000008657068125
2.8955962248146534,0.3,0.05,5,5.162804681935984,0.0,0.0,0.0,0.0,500.0,0.0046083049296807,0.9953916950703192,25.000010423198773,5.99182245303757e-14,0.9999999999981152,-4.612090514612493e-06,25.005046358614663,0.0576860681176185,0.0,0.0,179.999755859375,40.07240293510149,0,-0.0021271591696073754,8.091386867741217e-08,1.8299767723987646e-13,-1.0340394015650039e-10,0.0,0.0,0.0,1.0,-8.863192759662057e-08,25.000011061346523
2.9455962255597115,0.35,0.0499999999999999,5,5.162807575454501,0.0,0.0,0.0,0.0,500.0,0.0046083060428242,0.9953916939571756,25.00001250835868,5.99182245303757e-14,0.9999999999974876,-4.6120905146346415e-06,25.00505437946288,0.0576860681176185,0.0,0.0,179.999755859375,40.07240293510149,0,-0.002127159169627806,8.091386867780073e-08,1.8299767812871855e-13,-1.3294781751244208e-10,0.0,0.0,0.0,1.0,-1.1817580495256226e-07,25.00001314650643
2.995596226304769,0.4,0.0499999999999999,5,5.162810468973025,0.0,0.0,0.0,0.0,500.0,0.0046083071559561,0.9953916928440438,25.000014593321964,0.0,0.999999999703498,-0.0021681957154718,25.00506202602776,0.0576860681176185,0.0,0.0,179.999755859375,40.07240293510149,0,-1.0000014923239495,3.803852132406666e-05,4.0443329471143405e-08,-1.4021857433122825e-08,0.0,0.0,0.0,1.0,-1.4007085420562945e-05,25.000314593769662
3.045596227049828,0.45,0.0499999999999999,5,5.162813362491543,0.0,0.0,0.0,0.0,500.0,0.0046083082693079,0.995391691730692,25.000016677940778,5.99182245303757e-14,0.9999999994082648,-0.0021681957156351,25.005069315493813,0.0576860681176185,0.0,0.0,179.999755859375,40.07240293510149,0,-1.0000014923239533,3.803852132693158e-05,4.044332967323438e-08,-2.791076704873326e-08,0.0,0.0,0.0,1.0,-2.7895995036173377e-05,25.000316678388476
3.0955962277948856,0.5,0.0499999999999999,5,5.162816256010061,0.0668367416067143,0.0003848190126895,1.9805393105100475,1.97796663132362,500.0,0.0046083093852138,0.9953916906147862,25.00001880688012,5.99182245303757e-14,0.9999999579714428,-0.3061812721276244,25.005076264284583,0.0576860681176185,-0.001373291015625,0.008483094163239,-179.9898223876953,40.07240293510149,0,-141.21498506468595,0.00537160126539692,0.000806505230230503,-1.9892300040582563e-06,9.2828807787103e-07,1.0,-211.28346725164073,1.0,-0.0019892152320456964,25.042383302399525
3.145596228539944,0.55,0.05,5,5.162819149528582,0.1502549693613031,0.0008633469061672,4.441974660984246,4.43864115976732,500.0,0.0046083105364916,0.9953916894635084,25.00002096432445,5.99182245303757e-14,0.9999999044372552,-0.3926446135724796,25.00508288823147,0.0573850348591804,-0.0059204096905887,0.0432555861771106,-179.92568969726562,40.07240293510149,0,-181.0930565712306,0.006888501992499642,0.0013263227900993564,-4.5044113453253475e-06,3.015162652333573e-06,1.0,-120.52383847337138,1.0,-0.004504396573312788,25.05434888129582
3.1955962292850018,0.6,0.05,5,5.162822043047095,0.2254619756522927,0.0012940998841073,6.657040601718893,6.654118505677071,500.0,0.0046083116974524,0.9953916883025477,25.00002312333862,0.0,0.9999998500337354,-0.3931422640176644,25.005089202807312,0.0556502044200897,-0.0093078585341572,0.0737865269184112,-179.8212432861328,40.07240293510149,0,-181.32257706939285,0.0068972327020642875,0.001329686975908163,-7.022780471289137e-06,6.146578980837639e-06,1.0,-80.42268615131289,1.0,-0.007022765699276578,25.05441989645944
3.24559623003006,0.65,0.0499999999999999,5,5.162824936565611,0.4458524206046682,0.0025626685855194,13.18720691856765,13.17361208074892,500.0,0.004608312924763,0.995391687075237,25.00002643262877,0.0,0.9999996335125296,-1.612209736129774,25.005095473736844,0.0532067827880382,-0.0108032217249274,0.0913059636950492,-179.69674682617188,40.07240293510149,0,-743.5730870905745,0.028284381335610072,0.02236109304092034,-1.7350184458658205e-05,1.2338973711458017e-05,1.0,-166.7756084136844,1.0,-0.017350169686645645,25.22309835875594
3.295596230775118,0.7,0.05,5,5.162827830084124,1.0342600424113093,0.0059777264871875,30.80999729512116,30.69204041334673,500.0,0.0046083153983185,0.9953916846016814,25.00004901867152,5.99182245303757e-14,0.9999987486911324,-7.583982897849652,25.005102066577592,0.0505443699657917,-0.011322021484375,0.0982181131839752,-179.55169677734375,40.07240293510149,0,-3497.8353577954335,0.13305233154122198,0.4948170574936571,-6.59312310947059e-05,2.6703696522726203e-05,1.0,-338.1968957865239,1.0,-0.06593121632269333,26.04939962601015
3.345596231520176,0.75,0.0499999999999999,5,5.162830723602643,1.706218278543087,0.0098767797019886,50.83975347872431,50.76120220885432,500.0,0.0046083199057929,0.995391680094207,25.00009539909945,0.0,0.9999974428674384,-11.027045011403894,25.005109191467,0.0474527366459369,-0.011199951171875,0.0994270592927932,-179.3970489501953,40.07240293510149,0,-5085.820308431112,0.19345693002462971,1.0460882256458333,-0.0001365676242673601,5.040117261360237e-05,1.0,-298.0755963283791,1.0,-0.13656760949534755,26.525841491628785
3.395596232265234,0.8,0.05,5,5.162833617121168,2.3797691901842613,0.0137757614758269,70.90937922352477,70.79981886479916,500.0,0.0046083265365337,0.9953916734634662,25.00017199170384,5.99182245303757e-14,0.9999957465480036,-13.890126015742169,25.00511703915498,0.0442865118384361,-0.0109252901747822,0.0982932448387146,-179.23609924316406,40.07240293510149,0,-6406.308519703064,0.24368642132881,1.6598256367741508,-0.00022554413148545823,8.345352247727267e-05,1.0,-269.19873347915035,1.0,-0.22554411671344568,26.92206454761476
3.445596233010292,0.85,0.05,5,5.162836510639689,3.0533028943654656,0.0176746436439948,90.97849226224984,90.83792359926596,500.0,0.0046083356768288,0.9953916643231712,25.000286614797687,5.99182245303757e-14,0.9999936595962048,-16.76468875479101,25.005125763649172,0.0410194955766201,-0.0104370107874274,0.0954450592398643,-179.07208251953125,40.07240293510149,0,-7732.090216928805,0.2941173465752809,2.4179159612435024,-0.0003329342733872472,0.00012586050712123746,1.0,-253.23692029367692,1.0,-0.3329342586152346,27.31991367987633
3.49559623375535,0.9,0.0499999999999999,5,5.162839404158204,3.726814493463686,0.0215733978581494,111.0469466781064,110.87537071476568,500.0,0.0046083477954499,0.99539165220455,25.000447378813703,0.0,0.9999911804323004,-19.650853270066406,25.005135479336676,0.0377418957650661,-0.009918212890625,0.0917226076126098,-178.90859985351562,40.07240293510149,0,-9063.220329894963,0.344751811755551,3.3221038177417377,-0.00045881233352467696,0.00017762181953045526,1.0,-243.18946772882285,1.0,-0.4588123187526644,27.719413477782194
3.545596234500408,0.95,0.05,5,5.162842297676722,4.4002991073208735,0.025471995871049,131.11459707470908,130.91201503341,500.0,0.0046083633651433,0.9953916366348566,25.000662462254525,5.99182245303757e-14,0.9999883074600052,-22.54874210031722,25.005146076880067,0.034515656530857,-0.009368896484375,0.0878020748496055,-178.74781799316406,40.07240293510149,0,-10399.754934361326,0.39559196667223195,4.374165698470461,-0.0006032533742796954,0.00023873708490991183,1.0,-236.34200041217716,1.0,-0.6032533595076829,28.12058894256292
3.5955962352454662,1.0,0.0499999999999999,5,5.162845191195238,5.073751956678757,0.0293704100195277,151.1813010621442,150.947714379142,500.0,0.0046083828544068,0.9953916171455932,25.000939968804914,5.99182245303757e-14,0.99998503910187,-25.458481161843533,25.00515713576658,0.03138243034482,-0.0088500957936048,0.0841410979628562,-178.5916748046875,40.07240293510149,0,-11741.751658068479,0.44664002038321987,5.5759112496932755,-0.0007663332584195351,0.00030920586208600556,1.0,-231.42147582938892,1.0,-0.7663332436475225,28.52346546622546
3.645596235990524,1.05,0.05,5,5.162848084713757,5.747168142473018,0.0332686119468984,171.24691268066434,170.9823230115879,482.4672775928622,0.0046084067492959,0.995391593250704,25.0012883054049,5.99182245303757e-14,0.9999813737219908,-28.38019847214459,25.005168669923933,0.0283785201609134,-0.0083312969654798,0.080896757543087,-178.44168090820312,40.07240293510149,0,-13089.269091749873,0.4978982188095542,6.929183781675904,-0.0009481286624716167,0.0003890276418425752,1.0,-227.75162945063124,1.0,-0.9481286476996041,28.928069032929862
3.6955962367355824,1.1,0.05,5,5.16285097823227,6.420542802376871,0.0371665735091351,191.3112870651731,191.01569628333644,400.6320673967921,0.0046084355382467,0.9953915644617533,25.001715918619425,5.99182245303757e-14,0.9999773096763908,-31.314024956303847,25.005180714750395,0.0255372989922761,-0.007843017578125,0.0780007541179657,-178.29888916015625,40.07240293510149,0,-14442.367161042315,0.5493688588825236,8.435861523070692,-0.0011487170952638713,0.0004782018474311429,1.0,-224.9399716749148,1.0,-1.1487170804918587,29.33442606693212
3.74559623748064,1.15,0.05,5,5.162853871750788,7.093871100816731,0.0410642667170766,211.3742801477229,211.04769034289745,338.74924863969886,0.0046084697130567,0.9953915302869432,25.002231311315995,0.0,0.9999728453207832,-34.26009455134654,25.005193304021304,0.0228636935353279,-0.0072326655499637,0.0750227943062782,-178.16522216796875,40.07240293510149,0,-15801.107174542234,0.6010542903745008,10.097858718989118,-0.0013681769171325134,0.0005767278349424863,1.0,-222.74308272563655,1.0,-1.3681769023605008,29.742563463678664
3.7955962382256985,1.2,0.05,5,5.162856765269308,7.767148146608693,0.0449616632596488,231.4357462033491,231.0781596843274,290.81998701255395,0.0046085097775077,0.9953914902224924,25.00284319188296,5.99182245303757e-14,0.9999679789620032,-37.21854393139516,25.00520647049683,0.0204077549278736,-0.0064697242341935,0.0637803003191948,-178.03990173339844,40.07240293510149,0,-17165.551696727354,0.6529569110771081,11.917126535372466,-0.0016065873573648378,0.0006846048925342738,1.0,-221.00198647842467,1.0,-1.6065873425928252,30.152508700901166
3.845596238970757,1.25,0.0499999999999998,5,5.162859658787831,8.440369093304431,0.0488587350847365,251.4955408400507,251.10696013259127,252.94320340031143,0.0046085562372216,0.9953914437627784,25.00356029780812,5.99182245303757e-14,0.9999627089015152,-40.18951303789392,25.00522024526998,0.0181314516812562,-0.0056762685999274,0.0536852851510047,-177.9261932373047,40.07240293510149,0,-18535.764792525883,0.7050791761034021,13.89565444323665,-0.0018640285350388073,0.0008018322410523904,1.0,-219.6084624691344,1.0,-1.8640285202667948,30.564289735565886
3.895596239715815,1.3,0.05,5,5.162862552306348,9.113529104686013,0.1527554541994436,271.5535199706466,271.1339478170076,222.49251169743212,0.00460860960328,0.99539139039672,25.004391458009536,5.99182245303757e-14,0.9999570334400214,-43.17314502632344,25.00523465803832,-0.029067475348711,0.0076680574566125,0.0486172847449779,-177.9510955810547,40.07240293510149,0,-19911.812002655315,0.7574235969530428,16.03547135051232,-0.002140581479520131,0.0009284090341730296,1.0,-218.48629410111852,1.0,-2.1405814647481183,30.977935058806132
3.9455962404608727,1.35,0.05,5,5.162865445824867,9.786623242767131,0.1566517920217651,291.60953647557506,291.15897583920486,197.6452337647716,0.0046086704044442,0.9953913295955558,25.00534580429047,0.0,0.9999509503955284,-46.16958587299128,25.00524973809792,-0.0151206338778138,0.0116273146122694,0.0471761152148246,-178.04127502441406,40.07240293510149,0,-21293.76015938489,0.8099927346138821,18.338646470863797,-0.0024363281484004766,0.0010643343569892397,1.0,-217.58025859554962,1.0,-2.436328133628464,31.393473852105938
3.9955962412059303,1.4,0.05,5,5.162868339343386,10.459639739872635,0.1605476804346981,311.6632397327526,311.1816941127185,177.0040513384355,0.0046087399129922,0.9953912600870076,25.006445360345825,5.99182245303757e-14,0.9999444193875178,-49.17895490320678,25.00526557892931,-0.0127376737073063,0.0110839111730456,0.0490066036581993,-178.11753845214844,40.07240293510149,0,-22681.66356097741,0.8627886825123996,20.80726608606482,-0.0027513512534140514,0.0012096071311541374,1.0,-216.84937650877063,1.0,-2.7513512386420387,31.810944428639047
4.045596241950989,1.45,0.05,5,5.162871232861906,11.132586158097684,0.1644431632154084,331.7148550843245,331.2023276254325,159.83985873223654,0.0046088173236113,0.9953911826763886,25.00767610822373,0.0,0.999937508353844,-52.20145975433381,25.005282086805096,-0.0113319959491491,0.0098686059936881,0.0536169819533824,-178.20486450195312,40.07240293510149,0,-24075.617877557714,0.9158150834093651,23.44352796808959,-0.0030857348350467975,0.0013642263833499387,1.0,-216.26257848492335,1.0,-3.085734820274785,32.230361471491044
4.095596242696047,1.5,0.0499999999999998,5,5.162874126380423,11.8054535089744,0.1683381883348804,351.764114719548,351.2206089742627,145.35979570816164,0.0046089036232159,0.995391096376784,25.00905511219628,0.0,0.9999301916729464,-55.23723915700673,25.00529932695673,-0.0094837555661797,0.0084366984665393,0.0533096231520175,-178.27169799804688,40.07240293510149,0,-25475.68645105598,0.9690743711755566,26.24961829966947,-0.0034395638135336845,0.0015281910154190269,1.0,-215.7959152665299,1.0,-3.439563798761672,32.65176104751308
4.145596243441105,1.55,0.05,5,5.162877019898943,12.478230972535131,0.1722326931620899,371.8106962548537,371.23621626766845,132.99080198876655,0.0046090000072014,0.9953909999927986,25.010603043579977,5.99182245303757e-14,0.9999224386134332,-58.286427108779954,25.00531737620031,-0.0083346990868449,0.0069218650460243,0.0437541902065277,-178.33212280273438,40.07240293510149,0,-26881.930360154773,1.0225688966452624,29.227757590684114,-0.003812923957424723,0.0017014997789264591,1.0,-215.43062008807587,1.0,-3.8129239426527106,33.07518215162641
4.195596244186163,1.6,0.05,5,5.162879913417463,13.150919043306262,0.1761266805621894,391.8546144418233,391.2491642283376,122.37664059758484,0.0046091064529587,0.9953908935470412,25.01231944294659,5.99182245303757e-14,0.9999142734841804,-61.34921158754405,25.005336208549068,-0.0071740816347301,0.0056939022615551,0.0305241141468286,-178.3870086669922,40.07240293510149,0,-28294.435949980434,1.0763019576762114,32.3802600741371,-0.004205902234507785,0.0018841514323057129,1.0,-215.15177651695856,1.0,-4.205902219735772,33.500650227940724
4.245596244931221,1.65,0.05,5,5.162882806935982,13.82350870240236,0.1800200983300651,411.8956005632223,411.2591845481696,113.18269405812272,0.0046092239792072,0.9953907760207928,25.014221900915857,0.0,0.999905675975572,-64.42574220042566,25.005355880473303,-0.0061539043672382,0.0046218228526413,0.0164812449365854,-178.4344940185547,40.07240293510149,0,-29713.27154210869,1.1302761789548361,35.709448458354814,-0.004618586561481517,0.0020761446087279676,1.0,-214.94739274801393,1.0,-4.618586546709504,33.92820336354846
4.295596245676279,1.7,0.05,5,5.162885700454499,14.496000491237362,0.1839129496022841,431.93367076771045,431.26629334477445,105.18638557408237,0.0046093525695896,0.9953906474304104,25.01631005171208,0.0,0.999896667360078,-67.5163192517187,25.005376366544283,-0.0052768881432712,0.0038076301570981,0.0044806040823459,-178.47523498535156,40.07240293510149,0,-31138.57527441757,1.184496828977521,39.217861273878185,-0.0050510667736262055,0.002277477948884042,1.0,-214.8080451103766,1.0,-5.051066758854193,34.35788263403735
4.345596246421337,1.75,0.0499999999999998,5,5.162888593973016,15.168393919782844,0.1878052315446975,451.9688104702506,451.2704760495899,98.19798515508108,0.0046094923283733,0.9953905076716266,25.018585614782356,0.0,0.999887262462558,-70.62270134957824,25.00539765146641,-0.0045138350687921,0.0031068755779415,-0.0057100378908216,-178.5093994140625,40.07240293510149,0,-32571.15782420116,1.2389947605189164,42.90988377226595,-0.005503443965628997,0.0024881500866588027,1.0,-214.73043221617138,1.0,-5.503443950856984,34.789932962042705
4.395596247166395,1.8,0.05,5,5.162891487491537,15.840678076528588,0.1916968809963553,472.0006945595203,471.271408047558,92.03873338635088,0.0046096445115341,0.995390355488466,25.021070261555398,5.99182245303757e-14,0.9998774337275952,-73.74339249508577,25.00541980361476,-0.0040031871758401,0.0026035364717245,-0.0129432082176208,-178.53855895996094,40.07240293510149,1,-34010.328469441636,1.293743727983961,46.78616215799852,-0.005975809638815687,0.002708159504388367,1.0,-214.70247867630957,1.0,-5.975809624043674,35.224168802387894
4.445596247911453,1.85,0.05,5,5.162894381010055,16.51284805103412,0.1955878695346756,492.0291767365249,491.26894325968703,86.58269478032156,0.0046098097250156,0.9953901902749844,25.02377438438924,0.0,0.9998671790572976,-76.87857826562593,25.005442840115904,-0.0033813340123742,0.0021247437689453,-0.018769359216094,-178.56295776367188,40.07240293510149,1,-35456.172230577555,1.3487469871162445,50.84925707661854,-0.006468256475351487,0.002937504616208285,1.0,-214.71869735007408,1.0,-6.468256460579474,35.66062605356251
4.495596248656511,1.9,0.05,5,5.16289727452857,17.160302992564684,0.1992576428711224,511.257047613965,509.87600012962827,81.93914975286069,0.0046099760142456,0.9953900239857544,25.02649072319116,5.99182245303757e-14,0.9998568988467544,-74.37730579446584,25.005466776873675,-0.002946849213913,0.0017412361921742,-0.0235300008207559,-178.58355712890625,40.07240293510149,1,-34302.497121987355,1.3048650139379971,47.59458598407969,-0.0069446800464902,0.0031758421577716836,1.0,-199.89447235780244,1.0,-6.944680031718187,35.317239859787364
4.545596249401569,1.95,0.05,5,5.162900168047084,17.741937742361156,0.2025111539379966,528.4961557484872,526.2282686306046,78.2938442286238,0.0046101211524224,0.9953898788475776,25.028845039375312,5.99182245303757e-14,0.9998473242405502,-69.05888523478227,25.00549162781033,-0.0025891887489706,0.001216625329107,-0.0551742650568485,-178.59925842285156,40.07240293510149,1,-31849.581437172365,1.2115593900838995,41.03157352041791,-0.007387035344228705,0.0034222579597489216,1.0,-179.51579979410818,1.0,-7.387035329456692,34.58371947052702
4.595596250146627,2.0,0.0499999999999998,5,5.162903061565596,18.1774288038789,0.204767163117444,539.5841323639085,538.2163687840655,76.11844357089844,0.00461020919419,0.99538979080581,25.03022017871018,5.99182245303757e-14,0.999840006984202,-49.72211959327592,25.0055174068832,-0.0024386730510741,0.0007026099483482,-0.1101436242461204,-178.60971069335938,40.07240293510149,1,-22931.524974635337,0.8723178876013319,21.27059804883857,-0.007705528746654195,0.003674722248691683,1.0,-126.15384288971583,1.0,-7.705528731882183,31.90967767110078
4.6455962508916855,2.05,0.0500000000000002,5,5.162905955084112,18.478872784997584,0.2063148055421272,547.2296297864469,546.4110275393095,75.13811482600849,0.0046102536391557,0.9953897463608444,25.03087720437736,0.0,0.9998349300565328,-34.184553891183626,25.005544126832604,-0.0021890362259,0.0002719625772442,-0.1630844175815582,-178.61563110351562,40.07240293510149,1,-15765.676860596583,0.5997290156348004,10.054047435901671,-0.007924496480829149,0.003931373259594429,1.0,-85.31730827973577,1.0,-7.924496466057137,29.76058026255634
4.695596251636744,2.1,0.0499999999999998,5,5.162908848602634,17.915011770072066,0.0440189333649407,528.0212374292961,0.1544722124942106,76.4321872941482,0.0046102582604651,0.9953897417395348,25.030874248043347,5.99182245303757e-14,0.9998347642123312,-0.2373185916058605,25.005571799357767,-0.0020389885175973,-9.155259613180532e-05,-0.206176072359085,-178.61761474609375,40.07240293510149,1,-109.44966757259624,0.00416348406326071,0.00048455671689249326,-0.00792601661510099,0.004180192867512095,1.0,-0.6109382956445356,1.0,-7.926016600328978,25.063709148315127
4.745596252381802,2.15,0.0499999999999998,5,5.162911742121138,17.34873695287116,0.0426157548876014,511.3310355867558,0.0435172983460693,77.74525293890711,0.0046102586669922,0.9953897413330076,25.030863632228545,0.0,0.999834732041708,-0.2352036547609479,25.005600435325448,-0.0022350163199007,-0.0002746581449173,-0.2152055948972702,-178.61782836914062,40.07240293510149,1,-108.4742726027959,0.004126379908086805,0.00047595863949997913,-0.007927523202220474,0.004421147547413082,1.0,-0.6252574633961682,1.0,-7.927523187448462,25.063405914009383
4.79559625312686,2.2,0.0500000000000002,5,5.162914635639665,16.7825765454688,0.0412232578581665,494.6442062380042,0.0261660449955424,79.01272575146483,0.0046102590743937,0.9953897409256064,25.030853035632504,0.0,0.9998347001428298,-0.2342835867429304,25.00563010031044,-0.0021369529422372,-0.000244140450377,-0.1824889779090881,-178.61782836914062,40.07240293510149,1,-108.04994275888752,0.00411023836391106,0.00047224220766582594,-0.007929023895869901,0.004654238888322372,1.0,-0.6438221358094172,1.0,-7.92902388109789,25.06326801846017
4.845596253871918,2.25,0.0499999999999998,5,5.1629175291581815,16.216513269320462,0.0398321207754708,477.9602398811235,0.0189070683952913,80.2393885106632,0.0046102594827115,0.9953897405172883,25.03084245668191,5.99182245303757e-14,0.9998346681320832,-0.235890197129867,25.00566069106577,-0.0020912114996463,-0.0002136230177711,-0.1434612870216369,-178.61785888671875,40.07240293510149,1,-108.7908992220618,0.004138424511050298,0.0004787412484995984,-0.00793053488058132,0.004879468239285156,1.0,-0.6708649227813975,1.0,-7.9305348658093076,25.063479726448527
4.895596254616976,2.3,0.0500000000000002,5,5.1629204226767,15.65054860602909,0.0384419187426861,461.2791801682845,0.0178835579619595,81.42276137756568,0.0046102598922955,0.9953897401077044,25.03083189657224,0.0,0.9998346359025968,-0.2374964499151409,25.005692272060685,-0.0021093382965773,-0.0001831054833019,-0.1091873943805694,-178.61785888671875,40.07240293510149,1,-109.53169074241815,0.004166604384476157,0.00048528324289640165,-0.007932056154063854,0.0050968369699244485,1.0,-0.6998584746110629,1.0,-7.932056139291841,25.063691403794966
4.945596255362034,2.35,0.0499999999999998,5,5.162923316195218,15.0846920378873,0.0370521689976768,444.60130655964537,0.0185410593577508,82.55682211519985,0.0046102603032958,0.9953897396967042,25.030821357905666,0.0,0.9998346034233988,-0.2391022656010336,25.005724990789417,-0.0021728321444243,-0.0001525879488326,-0.0818803012371063,-178.61785888671875,40.07240293510149,1,-110.27228065511305,0.004194776589491817,0.0004918678341288801,-0.007933587713517397,0.005306346581561772,1.0,-0.7310210932921195,1.0,-7.933587698745385,25.0639030421022
4.995596256107092,2.4,0.0500000000000002,5,5.162926209713736,14.51892921157,0.0356626549533817,427.9261959999266,0.0192475804911406,83.6462621196621,0.0046102607155906,0.9953897392844092,25.030810838572563,0.0,0.9998345707183666,-0.2407077079608057,25.00575874540425,-0.0020912114996463,-0.000122070305224,-0.0609116218984127,-178.61785888671875,40.07240293510149,1,-111.01269837249961,0.004222942244926416,0.000498495250102413,-0.007935129556550348,0.005507998376166912,1.0,-0.7646066507717016,1.0,-7.935129541778337,25.064114648084313
5.04559625685215,2.45,0.0499999999999998,5,5.162929103232254,13.953254211024255,0.0342733628016745,411.2536741157023,0.0200096282944064,84.69226249287549,0.0046102611291478,0.995389738870852,25.03080033801785,0.0,0.9998345377934124,-0.2423127935699253,25.005793513845163,-0.0021093382965773,-0.000122070305224,-0.0451953597366809,-178.61785888671875,40.07240293510149,1,-111.75295153911472,0.004251101641577637,0.0005051655289864024,-0.00793668168087728,0.005701793573542248,1.0,-0.8009095931959757,1.0,-7.936681666105267,25.064326223479586
5.095596257597208,2.5,0.0499999999999998,5,5.162931996750772,13.38766298483112,0.0328842833929645,394.583621491194,0.0208344182850349,85.69507890153055,0.0046102615439589,0.9953897384560412,25.03078985609568,5.99182245303757e-14,0.9998345046497112,-0.243917526702748,25.00582929600029,-0.0021728321444243,-9.15527270990424e-05,-0.0334542654454708,-178.61785888671875,40.07240293510149,1,-112.49304212616852,0.004279254854434175,0.0005118786591591268,-0.007938244084240143,0.0058877333372204564,1.0,-0.8402739317058449,1.0,-7.938244069468132,25.06453776873353
5.145596258342266,2.55,0.0500000000000002,5,5.16293489026929,12.822152760466174,0.0314954108347998,377.91595640434696,0.0217302099383536,86.65439446396817,0.00461026196003,0.99538973803997,25.03077939291057,0.0,0.9998344712855076,-0.2455219042791587,25.00586610355964,-0.0021547055803239,-9.155277075478808e-05,-0.02823599986732,-178.61785888671875,40.07240293510149,1,-113.23296871295221,0.004307401829458925,0.0005186345984069308,-0.007939816764361157,0.006065818792226932,1.0,-0.8831041934087471,1.0,-7.939816749589145,25.064749283524456
5.195596259087324,2.6,0.0499999999999998,5,5.162937783787808,12.256719424509326,0.0301067360912568,361.250557611999,0.0227066123121083,87.57051991497633,0.0046102623773513,0.9953897376226488,25.030768948295304,0.0,0.99983443770226,-0.2471259349953784,25.005903933319416,-0.002216889988631,-9.155274892691524e-05,-0.0231065284460783,-178.61785888671875,40.07240293510149,1,-113.97273531001802,0.004335542719217165,0.0005254333542593433,-0.00794139971901824,0.006236051006456227,1.0,-0.9298796142963899,1.0,-7.941399704246229,25.06496076888831
5.245596259832382,2.65,0.0500000000000002,5,5.162940677306327,11.691360174680694,0.0287182535511499,344.5873425151156,0.023775074012614,88.44308001114051,0.0046102627959304,0.9953897372040696,25.030758522381404,0.0,0.9998344038979144,-0.2487296141511696,25.005942797131752,-0.0021991371177136,-9.15527416509576e-05,-0.0178882647305727,-178.61785888671875,40.07240293510149,1,-114.71233974945795,0.00436367744124859,0.000532274877876531,-0.007942992945959204,0.006398431008882348,1.0,-0.9811718913414699,1.0,-7.9429929311871925,25.06517222430624
5.29559626057744,2.7,0.0499999999999998,5,5.162943570824846,11.126070848448656,0.0273299544447531,327.926188423061,0.0249486854825588,89.27244579544914,0.0046102632157562,0.9953897367842438,25.030748114978167,0.0,0.9998343698742406,-0.2503329451699428,25.005982688576808,-0.0021369529422372,-9.15527416509576e-05,-0.0135237742215394,-178.61785888671875,40.07240293510149,1,-115.45178361005138,0.004391806055613031,0.0005391591548987039,-0.007944596442953788,0.006552959770666357,1.0,-1.0376689595334474,1.0,-7.944596428181776,25.065383650061182
5.345596261322498,2.75,0.0499999999999998,5,5.162946464343365,10.560848576420211,0.0259418337328773,311.2670107587758,0.0262455268147017,90.05817793581618,0.004610263636838,0.995389736363162,25.03073772624623,0.0,0.999834335628858,-0.2519359237808861,25.00602361985102,-0.002216889988631,-6.103515625e-05,-0.0101018492132425,-178.61785888671875,40.07240293510149,1,-116.19106492192721,0.004419928487383967,0.0005460861379952358,-0.00794621020774437,0.006699638223116637,1.0,-1.100205765485109,1.0,-7.946210192972359,25.06559504572281
5.395596262067556,2.8,0.0500000000000002,5,5.162949357861884,9.995689157188997,0.0245538831920491,294.60968568583075,0.0276844640692597,90.80071353529884,0.0046102640591632,0.9953897359408368,25.03072735596908,5.99182245303757e-14,0.9998343011638776,-0.253538557063211,25.00606558122314,-0.0021991371177136,-6.103515625e-05,-0.0074790567159652,-178.61785888671875,40.07240293510149,1,-116.9301869499056,0.004448044860758087,0.0005530558288868987,-0.007947834238118675,0.006838467239188708,1.0,-1.1698061545442147,1.0,-7.947834223346663,25.06580641205405
5.445596262812614,2.85,0.0499999999999998,5,5.162952251380403,9.430591698453584,0.0231661034098007,277.9541868993807,0.029290513671176,91.49795469959696,0.0046102644827823,0.9953897355172177,25.030717005020332,5.99182245303757e-14,0.9998342664684152,-0.255140819832361,25.006108623311263,-0.0021991371177136,-6.103515625e-05,-0.0055256225168704,-178.61785888671875,40.07240293510149,1,-117.66913807857179,0.00447615473390107,0.0005600680884364647,-0.0079494685317031,0.0069694476794450065,1.0,-1.247738655654735,1.0,-7.949468516931088,25.066017746443904
5.4955962635576725,2.9,0.0500000000000002,5,5.162955144898922,8.865549387605698,0.0217784811108033,261.300313601337,0.031094796227493,92.15233427844412,0.0046102649076332,0.9953897350923668,25.030706672327653,0.0,0.9998342315548177,-0.2567427447275776,25.00615268630844,-0.0021991371177136,-6.103515625e-05,-0.0040844529867172,-178.61785888671875,40.07240293510149,1,-118.40793336117568,0.0045042586794311855,0.0005671230301893354,-0.007951113086333117,0.00709258030982842,1.0,-1.3355961168826547,1.0,-7.951113071561105,25.066229052336006
5.545596264302731,2.95,0.0499999999999998,5,5.162958038417441,8.300558234310369,0.020391010859993,244.64794817644795,0.0331366076011524,92.76388572786112,0.0046102653337138,0.995389734666286,25.0306963578534,0.0,0.999834196423128,-0.258344333539938,25.00619776978129,-0.0021991371177136,-6.103515625e-05,-0.0040844529867172,-178.61785888671875,40.07240293510149,1,-119.14657362362394,0.004532356728770843,0.0005742206341651518,-0.007952767899855667,0.007207865840860507,1.0,-1.4354043458322046,1.0,-7.952767885083655,25.066440329940487
5.595596265047789,3.0,0.0499999999999998,5,5.16296093193596,7.735614796255578,0.0190036898049757,227.99698916171377,0.0354663734966942,93.33264230057964,0.0046102657610219,0.995389734238978,25.030686061560573,5.99182245303757e-14,0.999834161073394,-0.2599455881998909,25.006243870344637,-0.0021991371177136,-6.103515625e-05,-0.0027184151113033,-178.61785888671875,40.07240293510149,1,-119.88505975610036,0.004560448915787559,0.0005813608812102587,-0.007954432970130057,0.007315304935252945,1.0,-1.5497806304177748,1.0,-7.954432955358045,25.066651579487402
5.645596265792847,3.05,0.0500000000000002,5,5.162963825454479,7.17071489468929,0.01761651500056,211.34731338861636,0.0381499635783094,93.85863698618932,0.0046102661895554,0.9953897338104444,25.030675783413585,5.99182245303757e-14,0.9998341255056592,-0.2615465104955474,25.006290986362217,-0.0022600893862545,-6.103515625e-05,-0.0021378491073846,-178.61785888671875,40.07240293510149,1,-120.62339258314383,0.004588535271851709,0.0005885437517489711,-0.007956108295027046,0.007414898197679186,1.0,-1.6821669018312082,1.0,-7.956108280255035,25.066862801188527
5.695596266537905,3.1,0.0499999999999998,5,5.162966718972998,6.605854860164854,0.0162294871392681,194.6988126997763,0.0412747285809854,94.34190255541633,0.0046102666193123,0.9953897333806876,25.03066552337765,0.0,0.9998340897199702,-0.263147102341371,25.006339113413787,-0.0022426885552704,-6.103515625e-05,-0.0016187547007575,-178.61785888671875,40.07240293510149,1,-121.36157298756596,0.004616615830550368,0.0005957692269804965,-0.00795779387242965,0.007506646181848142,1.0,-1.837181947781052,1.0,-7.957793857657639,25.06707399527392
5.745596267282963,3.15,0.0500000000000002,5,5.162969612491517,6.041030122573359,0.0148426083787494,178.0513523921021,0.0449611146688525,94.78247148869072,0.0046102670502905,0.9953897329497094,25.03065528141929,5.99182245303757e-14,0.99983405371637,-0.2647473654982778,25.00638824873636,-0.0021817362867295,-6.103515625e-05,-0.0011884528212249,-178.61785888671875,40.07240293510149,1,-122.09960178136352,0.004644690622776804,0.0006030372876211293,-0.007959489700232171,0.007590549377994995,1.0,-2.0211718747290655,1.0,-7.959489685460159,25.0672851619537
5.795596268028021,3.2,0.0499999999999998,5,5.162972506010036,5.476236513397202,0.0134558869785493,161.40480959898446,0.0493756077061913,95.18037601357145,0.0046102674824882,0.9953897325175116,25.03064505750575,5.99182245303757e-14,0.9998340174949052,-0.2663473018432025,25.00643838694532,-0.0021991371177136,-6.103515625e-05,-0.0008879245724529,-178.61785888671875,40.07240293510149,1,-122.83747983004028,0.004672759681459693,0.0006103479151184504,-0.007961195776340921,0.007666608218458844,1.0,-2.243100339613302,1.0,-7.961195761568909,25.067496301454764
5.845596268773079,3.25,0.0499999999999998,5,5.162975399528555,4.911468545117155,0.0120693363406301,144.75902257821102,0.0547601320132274,95.53564800419468,0.0046102679159035,0.9953897320840964,25.03063485160567,0.0,0.999833981055618,-0.267946913091328,25.00648952422472,-0.0021991371177136,-6.103515625e-05,-0.0006420377176254,-178.61785888671875,40.07240293510149,1,-123.57520792450126,0.004700823036689965,0.0006177010903865043,-0.007962912098673206,0.007734823059363249,1.0,-2.516054145299501,1.0,-7.962912083901194,25.06770741398302
5.895596269518137,3.3,0.0500000000000002,5,5.1629782930470745,4.346720779579338,0.0106829834989692,128.11383104286818,0.0614782085720969,95.8483189965194,0.0046102683505345,0.9953897316494654,25.03062466368823,5.99182245303757e-14,0.9998339443985548,-0.2695462010660033,25.00654165429455,-0.0021991371177136,-6.103516352595761e-05,-0.0004576226347126,-178.61785888671875,40.07240293510149,1,-124.31278690553704,0.004728880720456199,0.0006250967950353508,-0.007964638665158005,0.007795194181301851,1.0,-2.8599211499747548,1.0,-7.964638650385993,25.06791849975989
5.945596270263195,3.35,0.0499999999999998,5,5.1629811865655935,3.781985146779394,0.009296872444375,111.46899713632192,0.0701041471344025,96.1184199980702,0.0046102687863797,0.9953897312136204,25.030614493724045,0.0,0.9998339075237572,-0.2711451674234275,25.006594772358312,-0.0021991371177136,-6.103516352595761e-05,-0.0004576226347126,-178.61785888671875,40.07240293510149,1,-125.05021753684979,0.004756932761814517,0.0006325350101013237,-0.007966375473734905,0.007847721752784899,1.0,-3.3064703504543944,1.0,-7.966375458962894,25.0681295589851
5.995596271008253,3.4,0.0500000000000002,5,5.1629840800841125,3.2172521581871263,0.0079110873106899,94.82424119382934,0.0816049008374128,96.3459814124383,0.0046102692234371,0.9953897307765628,25.03060434168424,5.99182245303757e-14,0.9998338704312708,-0.2727438139222999,25.00664887130733,-0.0021991371177136,-6.103515625e-05,-0.0002732075517997,-178.61785888671875,40.07240293510149,1,-125.78750062941418,0.004784979191619297,0.0006400157172894483,-0.00796812252235476,0.007892405810537498,1.0,-3.9097805967529,1.0,-7.9681225075827475,25.068340591873064
6.045596271753311,3.45,0.0499999999999998,5,5.162986973602632,2.6525039942802966,0.0065257816318874,78.17903800790808,0.0977561810559725,96.53103247069146,0.0046102696617053,0.9953897303382946,25.03059420754124,0.0,0.999833833121137,-0.2743421421513212,25.006703945434936,-0.0021991371177136,-6.103515625e-05,-0.0002732075517997,-178.61785888671875,40.07240293510149,1,-126.52463691580269,0.004813020037742477,0.0006475388977010718,-0.00796987980897859,0.007929246143791391,1.0,-4.770007403895827,1.0,-7.969879794206578,25.068551598615983
6.095596272498369,3.5,0.0499999999999998,5,5.162989867121151,2.087712037716833,0.0051412960927472,61.53254412489853,0.1222567410512215,96.67360059712912,0.0046102701011827,0.9953897298988172,25.030584091268167,5.99182245303757e-14,0.9998337955934008,-0.2759401537979615,25.00675998686836,-0.0021991371177136,-6.103515625e-05,-0.0002732075517997,-178.61785888671875,40.07240293510149,1,-127.26162717413969,0.004841055329788798,0.0006551045330865476,-0.00797164733157823,0.007958242144315236,1.0,-6.0957461984707315,1.0,-7.9716473168062185,25.068762579420408
6.145596273243427,3.55,0.0500000000000002,5,5.162992760639669,1.5228148475415983,0.0037585301267323,44.8829486744436,0.1645596347584616,96.7780341152784,0.0046102705417627,0.9953897294582372,25.03057399102198,0.0,0.9998337578702906,-0.277537901631297,25.00681689262592,-0.0021991371177136,-6.103515625e-05,-0.0002732075517997,-178.61785888671875,40.07240293510149,1,-127.99849574179268,0.004869085993531527,0.0006627128493324222,-0.007973425088463533,0.00797939235053109,1.0,-8.405387953002354,1.0,-7.973425073691521,25.06897353974452
6.195596273988485,3.6,0.0499999999999998,5,5.162995654158183,0.957619995348685,0.002381101901979,28.22458018072301,0.2614819822691602,96.84394570202036,0.0046102709834541,0.995389729016546,25.030563906953148,5.99182245303757e-14,0.9998337199497768,-0.2791353817028889,25.006874666480712,-0.0021991371177136,-6.103515625e-05,-6.147169915493578e-05,-178.61785888671875,40.07240293510149,1,-128.7352407975853,0.004897111959699805,0.0006703638057129499,-0.007975213077919055,0.007992692628244267,1.0,-13.44324903645216,1.0,-7.975213063147043,25.069184479192423
6.245596274733543,3.65,0.0500000000000002,5,5.1629985476767,0.3906017319126867,0.0022157215384935,11.512429952388516,11.30717138215071,96.87086469800722,0.0046102714262663,0.9953897285737336,25.0305538392272,5.99182245303757e-14,0.9998336818296526,-0.2807325896044873,25.00693331295929,-0.0021991371177136,-6.103515625e-05,-6.147169915493578e-05,-178.61785888671875,40.07240293510149,1,-129.47186030827206,0.004925133150955918,0.0006780573588507804,-0.007977011298201114,0.00799811765229861,1.0,-33.14677066952012,1.0,-7.9770112834291025,25.06939539731968
6.2955962754786015,3.7,0.0499999999999998,5,5.163001441195164,0.0311567208213168,0.0001692751463177,0.9183708180062988,0.8346982033551448,96.86238780313924,0.004610271870272,0.995389728129728,25.03054378910105,5.99182245303757e-14,0.9998336434943196,-0.2823294903559922,25.00699289302713,-0.0021991371177136,-6.103515625e-05,-6.147169915493578e-05,-178.61785888671875,40.07240293510149,1,-130.2083381406134,0.004953148953613898,0.0006857933163681919,-0.007978819747341956,0.00799855038453224,1.0,-417.91412802186636,1.0,-7.978819732569944,25.069606290543234
6.34559627622366,3.75,0.0499999999999998,5,5.163004334713682,0.0,2.5754928089352247e-10,1.449848932374208e-06,1.2305568287610466e-06,96.83937305763696,0.0046102723154784,0.9953897276845216,25.030533756701345,5.99182245303757e-14,0.9998336049420178,-0.2839260811803914,25.00705340595869,-0.0021991371177136,-6.103515625e-05,-6.147169915493578e-05,-178.61785888671875,40.07240293510149,1,-130.94467301368385,0.004981159318954235,0.0006935716393762373,-0.007980638423356034,0.00799855038453224,0.0,0.0,1.0,-7.9806384085840225,25.06981715860545
6.395596276968718,3.8,0.0500000000000002,5,5.1630072282322,0.0,4.603379845898914e-14,2.5912700313284264e-10,2.1995893378127026e-10,96.8160247304432,0.0046102727618862,0.9953897272381136,25.030523742042533,5.99182245303757e-14,0.9998335661723184,-0.2855223623479249,25.00711484471128,-0.0021991371177136,-6.103515625e-05,-6.147169915493578e-05,-178.61785888671875,40.07240293510149,1,-131.68086505197513,0.005009164251717981,0.0007013923036568576,-0.007982467324259534,0.00799855038453224,0.0,0.0,1.0,-7.9824673094875225,25.070028001558125
6.445596277713776,3.85,0.0499999999999998,5,5.163010121750718,0.0,9.996958494727398e-16,5.627347820884022e-12,4.776751779591641e-12,96.79251464326516,0.0046102732098242,0.9953897267901758,25.030513750818955,5.99182245303757e-14,0.9998335271150656,-0.2871181767988442,25.007177489104663,-0.0021991371177136,-6.103515625e-05,-6.147169915493578e-05,-178.61785888671875,40.07240293510149,1,-132.41684181800855,0.0050371609964709515,0.0007092545077460857,-0.00798430644706256,0.00799855038453224,0.0,0.0,1.0,-7.984306432290549,25.070238803364358
6.495596278458834,3.9,0.0500000000000002,5,5.163013015269236,0.0,2.1709799384183282e-17,1.2220580996072717e-13,1.0373383698710414e-13,96.7688853147188,0.0046102736589604,0.9953897263410396,25.030503777280444,5.99182245303757e-14,0.9998334878405548,-0.2887136719624591,25.0072410311588,-0.0021991371177136,-6.103515625e-05,-6.147169915493578e-05,-178.61785888671875,40.07240293510149,1,-133.15267130750033,0.005065152139692265,0.0007171589456079522,-0.00798615578971961,0.00799855038453224,0.0,0.0,1.0,-7.986155774947598,25.070449578672694
6.545596279203892,3.95,0.0499999999999998,5,5.163015908787754,0.0,4.714563621757274e-19,2.653857942658488e-15,2.2527138025876807e-15,96.7451369542015,0.0046102741092936,0.9953897258907064,25.0304938214083,5.99182245303757e-14,0.999833448348829,-0.2903088295950846,25.007305461675685,-0.0021991371177136,-6.103515625e-05,-6.147169915493578e-05,-178.61785888671875,40.07240293510149,1,-133.88834510647007,0.005093137361317273,0.0007251054998086382,-0.00798801535006831,0.00799855038453224,0.0,0.0,1.0,-7.988015335296299,25.070660324940242
6.59559627994895,4.0,0.0499999999999998,5,5.163018802306272,0.0,1.023824095958654e-20,5.76317260199276e-17,4.8920374121333156e-17,96.7212697750449,0.0046102745608227,0.9953897254391773,25.030483883184104,0.0,0.9998334086399374,-0.2919036411966741,25.007370769755653,-0.0021991371177136,-6.103515625e-05,-6.147169915493578e-05,-178.61785888671875,40.07240293510149,1,-134.62385929463397,0.005121116512222353,0.0007330940998578265,-0.007989885125891848,0.00799855038453224,0.0,0.0,1.0,-7.989885111119836,25.070871040972495
6.645596280694008,4.05,0.0499999999999998,5,5.16302169582479,0.0,2.2233591148531898e-22,1.2515432925622871e-18,1.062365733946156e-18,96.69728398922264,0.0046102750135468,0.9953897249864532,25.03047396259069,5.99182245303757e-14,0.9998333687139254,-0.2934981075018353,25.007436945654604,-0.0021991371177136,-6.103515625e-05,-6.147169915493578e-05,-178.61785888671875,40.07240293510149,1,-135.35921421066448,0.005149089605295356,0.0007411247209759008,-0.007991765114978107,0.00799855038453224,0.0,0.0,1.0,-7.991765100206095,25.07108172685389
6.695596281439066,4.1,0.0500000000000007,5,5.163024589343308,0.0,4.828333983203363e-24,2.717899417874349e-20,2.3070760214772646e-20,96.67317981134951,0.0046102754674648,0.9953897245325352,25.030464059611237,5.99182245303757e-14,0.9998333285708412,-0.2950922294825811,25.0075039780628,-0.0021991371177136,-6.103515625e-05,-6.147169915493578e-05,-178.61785888671875,40.07240293510149,1,-136.09441030272376,0.005177056657589142,0.0007491973396755179,-0.0079936553151212,0.00799855038453224,0.0,0.0,1.0,-7.993655300349189,25.071292382702055
6.745596282184124,4.15,0.0499999999999998,5,5.1630274828618266,0.0,1.0485366510418854e-25,5.902279278846013e-22,5.01012040024246e-22,96.64895745472538,0.0046102759225757,0.9953897240774242,25.0304541742301,5.99182245303757e-14,0.99983328821073,-0.2966860080088665,25.00757185675405,-0.0021991371177136,-6.103515625e-05,-6.147169915493578e-05,-178.61785888671875,40.07240293510149,1,-136.82944797190552,0.00520501768436608,0.0007573119320611098,-0.00799555572412081,0.00799855038453224,0.0,0.0,1.0,-7.995555709348798,25.071503008621672
6.795596282929182,4.2,0.0499999999999998,5,5.163030376380345,0.0,2.277048192650695e-27,1.2817645133781897e-23,1.0880199883519832e-23,96.62461713519632,0.0046102763788787,0.9953897236211212,25.03044430643189,5.99182245303757e-14,0.9998332476336408,-0.2982794441844262,25.007640570057617,-0.0021991371177136,-6.103515625e-05,-6.147169915493578e-05,-178.61785888671875,40.07240293510149,1,-137.56432772712137,0.005232972704989933,0.0007654684755385412,-0.007997466339783687,0.00799855038453224,0.0,0.0,1.0,-7.9974663250116755,25.071713604750027
6.84559628367424,4.25,0.0499999999999998,5,5.163033269898863,0.0,4.94496591924569e-29,2.7835509792125234e-25,2.3628060929117285e-25,96.60015906734958,0.0046102768363729,0.9953897231636272,25.0304344562025,0.0,0.9998332068396172,-0.2998725390107542,25.00771010731768,-0.0021991371177136,-6.103515625e-05,-6.147169915493578e-05,-178.61785888671875,40.07240293510149,1,-138.2990500301299,0.005260921737030776,0.0007736669471132448,-0.007999387159922993,0.00799855038453224,0.0,0.0,1.0,-7.9993871451509815,25.07192417121154
6.895596284419298,4.3,0.0499999999999998,5,5.163036163417381,0.0,1.0738787348445375e-30,6.044927128511708e-27,5.1312132672170574e-27,96.57558346822704,0.0046102772950574,0.9953897227049426,25.03042462352801,5.99182245303757e-14,0.9998331658287084,-0.3014652937194987,25.007780456549654,-0.0021991371177136,-6.103515625e-05,-6.147169915493578e-05,-178.61785888671875,40.07240293510149,1,-139.03361544883555,0.005288864802096468,0.000781907325100404,-0.008001318182359784,0.00799855038453224,0.0,0.0,1.0,-8.001318167587772,25.07213470816266
6.945596285164356,4.35,0.0500000000000007,5,5.163039056935899,0.0,2.3321043611897252e-32,1.3127552312385006e-28,1.114327501641877e-28,96.5508905536656,0.0046102777549314,0.9953897222450684,25.03041480839579,5.99182245303757e-14,0.9998331246009582,-0.3030577094401814,25.007851606718248,-0.0021991371177136,-6.103515625e-05,-6.147169915493578e-05,-178.61785888671875,40.07240293510149,1,-139.76802450404261,0.0053168019200031825,0.0007901895874236573,-0.008003259404922339,0.00799855038453224,0.0,0.0,1.0,-8.003259390150328,25.072345215747003
6.995596285909414,4.4,0.0499999999999998,5,5.163041950454417,0.0,5.064458150309638e-34,2.8508159730285147e-30,2.419900355507288e-30,96.5260805418678,0.0046102782159943,0.9953897217840056,25.030405010793288,5.99182245303757e-14,0.9998330831564144,-0.304649787528611,25.00792354557001,-0.0021991371177136,-6.103515625e-05,-6.147169915493578e-05,-178.61785888671875,40.07240293510149,1,-140.50227782091753,0.005344733114537035,0.0007985137133226355,-0.008005210825447629,0.00799855038453224,0.0,0.0,1.0,-8.005210810675617,25.072555694139563
7.045596286654472,4.45,0.0499999999999998,5,5.163044843972936,0.0,3.423421695188356e-36,1.9270642901990638e-32,1.6357813080202222e-32,96.50117175882914,0.0046102786781041,0.9953897213218958,25.03039522826316,5.99182245303757e-14,0.999833041525402,-0.3062415914874076,25.00799615558208,-0.0021991371177136,-6.103515625e-05,-6.147169915493578e-05,-178.61785888671875,40.07240293510149,1,-141.23640468744827,0.00537265949977908,0.0008068800096735056,-0.0080071724421794,0.00799855038453224,0.0,0.0,1.0,-8.007172427407388,25.072766149669395
7.09559628739953,4.5,0.0499999999999998,5,5.163047737491455,0.0,6.659339980431078e-38,3.7485808573831843e-34,3.1819703393505816e-34,96.47613206188336,0.0046102791415125,0.9953897208584876,25.030385465165523,5.99182245303757e-14,0.9998329996538732,-0.3078330108947379,25.008069616932403,-0.0021991371177136,-6.103515625e-05,-6.147169915493578e-05,-178.61785888671875,40.07240293510149,1,-141.97035417569296,0.005400579138504174,0.0008152878690579619,-0.008009144252654062,0.00799855038453224,0.0,0.0,1.0,-8.009144237882051,25.07297657141823
7.1455962881445885,4.55,0.0499999999999998,5,5.163050631009974,0.0,1.2953774363953628e-39,7.291759259717767e-36,6.189577482769939e-36,96.45097591718068,0.0046102796061077,0.9953897203938924,25.0303757195656,5.99182245303757e-14,0.999832957565685,-0.309424096615837,25.008143831871337,-0.0021991371177136,-6.103515625e-05,-6.147169915493578e-05,-178.61785888671875,40.07240293510149,1,-142.70414974511658,0.0054284929230848595,0.0008237375307021777,-0.008011126254733856,0.00799855038453224,0.0,0.0,1.0,-8.011126239961845,25.073186964489135
7.195596288889647,4.6,0.0500000000000007,5,5.163053524528493,0.0,2.51978400650076e-41,1.4184016390220197e-37,1.204004376584169e-37,96.4257035436014,0.0046102800718891,0.9953897199281108,25.03036599145412,5.99182245303757e-14,0.9998329152608808,-0.3110148500910039,25.0082187885709,-0.0021991371177136,-6.103515625e-05,-6.147169915493578e-05,-178.61785888671875,40.07240293510149,1,-143.43779205985192,0.005456400878789542,0.0008322289749052334,-0.008013118446290242,0.00799855038453224,0.0,0.0,1.0,-8.013118431518231,25.073397329072073
7.245596289634705,4.65,0.0499999999999998,5,5.163056418047012,0.0,4.9015358696978535e-43,2.7591035034148504e-39,2.34205465516693e-39,96.40031516202228,0.0046102805388563,0.9953897194611436,25.03035628082188,0.0,0.9998328727395068,-0.3126052729603918,25.00829447432409,-0.0021991371177136,-6.103515625e-05,-6.147169915493578e-05,-178.61785888671875,40.07240293510149,1,-144.17128187620327,0.005484303034392839,0.0008407621832046637,-0.00801512082520519,0.00799855038453224,0.0,0.0,1.0,-8.015120810433178,25.073607665384742
7.295596290379763,4.7,0.0499999999999998,5,5.163059311565531,0.0,9.534581655927474e-45,5.367071862749503e-41,4.555819593272599e-41,96.37481099244408,0.0046102810070087,0.9953897189929912,25.03034658766086,5.99182245303757e-14,0.9998328300016074,-0.3141953667791121,25.00837087708436,-0.0021991371177136,-6.103515625e-05,-6.147169915493578e-05,-178.61785888671875,40.07240293510149,1,-144.9046199112542,0.005512199417177405,0.0008493371368634456,-0.008017133389370623,0.00799855038453224,0.0,0.0,1.0,-8.017133374598611,25.073817973634235
7.345596291124821,4.75,0.0499999999999998,5,5.16306220508405,0.0,1.8547135740853785e-46,1.0440284046497837e-42,8.862209131895026e-43,96.3491912567912,0.0046102814763458,0.9953897185236542,25.030336911963104,5.99182245303757e-14,0.9998327870472276,-0.3157851332977788,25.008447984011354,-0.0021991371177136,-6.103515625e-05,-6.147169915493578e-05,-178.61785888671875,40.07240293510149,1,-145.6378069722529,0.005540090057855768,0.0008579538183826938,-0.008019156136689682,0.00799855038453224,0.0,0.0,1.0,-8.01915612191767,25.07402825405478
7.395596291869879,4.8,0.0500000000000007,5,5.163065098602569,0.0,3.6077807529368617e-48,2.0308423791703653e-44,1.7238708932654017e-44,96.32345617615036,0.0046102819468671,0.9953897180531328,25.03032725372185,0.0,0.9998327438764112,-0.3173745741826201,25.008525782880326,-0.0021991371177136,-6.103515625e-05,-6.147169915493578e-05,-178.61785888671875,40.07240293510149,1,-146.37084382752928,0.005567974985660002,0.0008666122099997978,-0.008021189065076175,0.00799855038453224,0.0,0.0,1.0,-8.021189050304164,25.07423850687011
7.445596292614937,4.85,0.0499999999999998,5,5.163067992121088,0.0,7.017871087809271e-50,3.950402936383573e-46,3.3532817767406623e-46,96.2976059734616,0.0046102824185723,0.9953897175814276,25.030317612930503,5.99182245303757e-14,0.9998327004892033,-0.3189636912906644,25.00860426075326,-0.0021991371177136,-6.103515625e-05,-6.147169915493578e-05,-178.61785888671875,40.07240293510149,1,-147.1037313334091,0.0055958542331695504,0.0008753122951871386,-0.008023232172455807,0.00799855038453224,0.0,0.0,1.0,-8.023232157683795,25.074448732330527
7.495596293359995,4.9,0.0499999999999998,5,5.163070885639607,0.0,1.3651229567810963e-51,7.684360198880019e-48,6.52283646186985e-48,96.2716408708641,0.004610282891461,0.995389717108539,25.030307989583378,5.99182245303757e-14,0.9998326568856462,-0.3205524863952546,25.008683405264776,-0.0021991371177136,-6.103515625e-05,-6.147169915493578e-05,-178.61785888671875,40.07240293510149,1,-147.83647030762285,0.005623727831495695,0.0008840540571640648,-0.008025285456765634,0.00799855038453224,0.0,0.0,1.0,-8.025285441993622,25.074658930675664
7.545596294105053,4.95,0.0499999999999998,5,5.163073779158126,0.0,2.6554583112836127e-53,1.4947733927755487e-49,1.26883243557359e-49,96.24556109228246,0.0046102833655329,0.9953897166344672,25.03029838367513,0.0,0.9998326130657852,-0.3221409614556533,25.00876320341285,-0.0021991371177136,-6.103515625e-05,-6.147169915493578e-05,-178.61785888671875,40.07240293510149,1,-148.5690616536461,0.005651595815011462,0.0008928374803798144,-0.008027348915955268,0.00799855038453224,0.0,0.0,1.0,-8.027348901183256,25.074869102171224
7.595596294850111,5.0,0.0499999999999998,5,5.163076672676645,0.0,5.1654521778229816e-55,2.907663532699323e-51,2.468159310516191e-51,96.21936686087544,0.0046102838407875,0.9953897161592123,25.03028879520133,0.0,0.9998325690296626,-0.3237291183482103,25.00884364272747,-0.0021991371177136,-6.103515625e-05,-6.147169915493578e-05,-178.61785888671875,40.07240293510149,1,-149.30150623671543,0.005679458216635268,0.0009016625490412938,-0.008029422547986333,0.00799855038453224,0.0,0.0,1.0,-8.029422533214321,25.075079247072345
7.645596295595169,5.05,0.0500000000000007,5,5.163079566195164,0.0,1.0048066742602796e-56,5.6561124216606815e-53,4.801175752097006e-53,96.19305840152168,0.0046102843172248,0.9953897156827752,25.030279224157653,5.99182245303757e-14,0.999832524777322,-0.3253169591301501,25.008924710174316,-0.0021991371177136,-6.103515625e-05,-6.147169915493578e-05,-178.61785888671875,40.07240293510149,1,-150.0338050054858,0.0057073150724587735,0.0009105292485782743,-0.008031506350833632,0.00799855038453224,0.0,0.0,1.0,-8.03150633606162,25.075289365659298
7.695596296340227,5.1,0.0499999999999998,5,5.163082459713683,0.0,1.954583017015179e-58,1.1002459036354056e-54,9.339402875871071e-55,96.16663593836768,0.0046102847948444,0.9953897152051556,25.030269670540804,0.0,0.999832480308806,-0.3269044857766388,25.00900639321219,-0.0021991371177136,-6.103515625e-05,-6.147169915493578e-05,-178.61785888671875,40.07240293510149,1,-150.76595887076715,0.005735166417134014,0.0009194375641889648,-0.008033600322484616,0.00799855038453224,0.0,0.0,1.0,-8.033600307712604,25.075499458202035
7.745596297085285,5.15,0.0499999999999998,5,5.163085353232202,0.0,3.8021322296786185e-60,2.140241535844395e-56,1.81673785482746e-56,96.1400996972163,0.0046102852736461,0.9953897147263538,25.030260134347657,5.99182245303757e-14,0.9998324356241576,-0.328491700443771,25.00908867880429,-0.0021991371177136,-6.103515625e-05,-6.147169915493578e-05,-178.61785888671875,40.07240293510149,1,-151.4979688268127,0.005763012288487211,0.000928387482315209,-0.008035704460940544,0.00799855038453224,0.0,0.0,1.0,-8.035704446168532,25.075709524995702
7.795596297830343,5.2,0.0499999999999998,5,5.163088246750721,0.0,7.395915840904402e-62,4.163206666697741e-58,3.533919256790657e-58,96.11344990317076,0.0046102857536297,0.9953897142463702,25.030250615575937,0.0,0.999832390723418,-0.3300786051854985,25.0091715543698,-0.0021991371177136,-6.103515625e-05,-6.147169915493578e-05,-178.61785888671875,40.07240293510149,1,-152.22983582076785,0.0057908527225526045,0.0009373789890593111,-0.008037818764215832,0.00799855038453224,0.0,0.0,1.0,-8.03781874944382,25.075919566322167
7.845596298575401,5.25,0.0499999999999998,5,5.16309114026924,0.0,1.4386594790087124e-63,8.098302128202768e-60,6.874208714926337e-60,96.08668678292952,0.0046102862347952,0.9953897137652048,25.030241114223656,5.99182245303757e-14,0.9998323456066308,-0.3316652022627713,25.009255006896865,-0.0021991371177136,-6.103515625e-05,-6.147169915493578e-05,-178.61785888671875,40.07240293510149,1,-152.96156089524433,0.005818687758995988,0.0009464120719342565,-0.008039943230339377,0.00799855038453224,0.0,0.0,1.0,-8.039943215567366,25.07612958249223
7.895596299320459,5.3,0.0500000000000007,5,5.163094033787759,0.0,2.798497448918136e-65,1.575291139508621e-61,1.3371793493948564e-61,96.05981056252196,0.0046102867171424,0.9953897132828576,25.030231630289563,5.99182245303757e-14,0.999832300273836,-0.3332514938151026,25.00933902379529,-0.0021991371177136,-6.103515625e-05,-6.147169915493578e-05,-178.61785888671875,40.07240293510149,1,-153.69314503684805,0.005846517435352677,0.0009554867180084994,-0.008042077857353778,0.00799855038453224,0.0,0.0,1.0,-8.042077842581767,25.076339573800617
7.945596300065517,5.35,0.0499999999999998,5,5.163096927306278,0.0,5.443684062437463e-67,3.064282265830515e-63,2.6011039568208307e-63,96.03282146951386,0.0046102872006711,0.9953897127993288,25.03022216377269,0.0,0.999832254725076,-0.3348374821874337,25.00942359210404,-0.0021991371177136,-6.103515625e-05,-6.147169915493578e-05,-178.61785888671875,40.07240293510149,1,-154.42458932692676,0.005874341792761995,0.0009646029157725411,-0.008044222643316652,0.00799855038453224,0.0,0.0,1.0,-8.04422262854464,25.07654954057077
7.995596300810575,5.4,0.0499999999999998,5,5.163099820824797,0.0,1.058917820951951e-68,5.960710585473617e-65,5.059727449462347e-65,96.0057197308315,0.0046102876853814,0.9953897123146186,25.03021271467287,5.99182245303757e-14,0.9998322089603912,-0.3364231696059681,25.009508699251,-0.0021991371177136,-6.103515625e-05,-6.147169915493578e-05,-178.61785888671875,40.07240293510149,1,-155.15589479206744,0.005902160870280141,0.0009737606532902838,-0.008046377586299875,0.00799855038453224,0.0,0.0,1.0,-8.046377571527863,25.07675948311049
8.045596301555634,5.45,0.0499999999999998,5,5.163102714343316,0.0,2.059837969414004e-70,1.1594946783091892e-66,9.842331637407116e-67,95.97850557488076,0.0046102881712732,0.9953897118287268,25.030203282990044,0.0,0.999832162979823,-0.3380085584949482,25.009594332350275,-0.0021991371177136,-6.103515625e-05,-6.147169915493578e-05,-178.61785888671875,40.07240293510149,1,-155.88706255019105,0.005929974710437688,0.0009829599200251392,-0.00804854268439085,0.00799855038453224,0.0,0.0,1.0,-8.048542669618838,25.0769694017551
8.095596302300692,5.5,0.0499999999999998,5,5.163105607861835,0.0,4.006870409905968e-72,2.25549003282725e-68,1.914565844294933e-68,95.95117922945612,0.0046102886583466,0.9953897113416532,25.030193868725064,5.99182245303757e-14,0.9998321167834112,-0.339593651163631,25.009680478873747,-0.0021991371177136,-6.103515625e-05,-6.147169915493578e-05,-178.61785888671875,40.07240293510149,1,-156.61809366618806,0.005957783353747912,0.0009922007050377796,-0.00805071793569177,0.00799855038453224,0.0,0.0,1.0,-8.050717920919757,25.07717929682492
8.14559630304575,5.55,0.0500000000000007,5,5.163108501380354,0.0,7.794328290599539e-74,4.387470896543568e-70,3.724292289131909e-70,95.92374092377692,0.0046102891466015,0.9953897108533984,25.03018447187884,0.0,0.999832070371196,-0.3411784501108735,25.009767126032955,-0.0021991371177136,-6.103515625e-05,-6.147169915493578e-05,-178.61785888671875,40.07240293510149,1,-157.3489892923912,0.005985586844050412,0.0010014829987584726,-0.00805290333832083,0.00799855038453224,0.0,0.0,1.0,-8.052903323548819,25.077389168666556
8.195596303790808,5.6,0.0499999999999998,5,5.163111394898873,0.0,1.5161885050916195e-75,8.534708382185251e-72,7.244665259185634e-72,95.89619088647822,0.0046102896360381,0.9953897103639618,25.03017509245308,5.99182245303757e-14,0.9998320237432172,-0.3427629577231767,25.00985426136793,-0.0021991371177136,-6.103515625e-05,-6.147169915493578e-05,-178.61785888671875,40.07240293510149,1,-158.0797505293154,0.006013385223213627,0.0010108067912318768,-0.008055098890411514,0.00799855038453224,0.0,0.0,1.0,-8.055098875639501,25.077599017611877
