timestep,sim_simulation_time,sim_dt_physics,sim_battery_age_factor,sim_battery_time_accel,sim_speed,sim_throttle,sim_front_rpm,sim_rear_rpm,sim_range,sim_battery_degradation,sim_battery_soh,sim_battery_temp,sim_battery_temp_std,sim_battery_soc,sim_battery_curr,sim_battery_cooling_temp,carla_steering,carla_roll,carla_pitch,carla_yaw,carla_env_temp,carla_traffic_light
2.645596221089363,0.05,0.05,5,5.162790214343387,0.0,0,0,0,500,0.004608299364110518,0.9953917006358894,25,5.99182245303757e-14,1,-2.306056791078894e-06,25.004999999999995,0.15000000596046448,0.0,0.0,179.999755859375,40.07240293510149,0
2.695596221834421,0.1,0.05,5,5.162793107861905,0.0,0,0,0,500,0.004608300477171959,0.995391699522828,25.00000208371773,5.99182245303757e-14,0.9999999999996851,-2.306056791090157e-06,25.00501017603858,0.012915175408124924,0.0,0.0,179.999755859375,40.07240293510149,0
2.745596222579479,0.15,0.05000000000000002,5,5.1627960013804275,0.0,0,0,0,500,0.004608301590270272,0.9953916984097297,25.00000416807984,5.99182245303757e-14,0.9999999999993712,-2.3060567911014236e-06,25.005019876139272,0.05768606811761856,0.0,0.0,179.999755859375,40.07240293510149,0
2.7955962233245373,0.2,0.04999999999999999,5,5.162798894898946,0.0,0,0,0,500,0.004608302703394718,0.9953916972966053,25.000006252899993,5.99182245303757e-14,0.999999999999057,-2.306056791112693e-06,25.005029121783366,0.05768606811761856,0.0,0.0,179.999755859375,40.07240293510149,0
2.8455962240695953,0.25,0.04999999999999999,5,5.1628017884174655,0.0,0,0,0,500,0.0046083038165346,0.9953916961834653,25.000008337992654,5.99182245303757e-14,0.9999999999987428,-2.306056791123964e-06,25.00503794557062,0.05768606811761856,0.0,0.0,179.999755859375,40.07240293510149,0
2.8955962248146534,0.3,0.050000000000000044,5,5.162804681935984,0.0,0,0,0,500,0.004608304929680755,0.9953916950703192,25.000010423198773,5.99182245303757e-14,0.9999999999981151,-4.612090514612493e-06,25.005046358614663,0.05768606811761856,0.0,0.0,179.999755859375,40.07240293510149,0
2.9455962255597115,0.35,0.04999999999999999,5,5.162807575454501,0.0,0,0,0,500,0.004608306042824235,0.9953916939571757,25.00001250835868,5.99182245303757e-14,0.9999999999974875,-4.6120905146346415e-06,25.005054379462877,0.05768606811761856,0.0,0.0,179.999755859375,40.07240293510149,0
2.9955962263047695,0.4,0.04999999999999999,5,5.162810468973025,0.0,0,0,0,500,0.00460830715595612,0.9953916928440438,25.000014593321964,0,0.9999999997034981,-0.0021681957154718093,25.00506202602776,0.05768606811761856,0.0,0.0,179.999755859375,40.07240293510149,0
3.0455962270498276,0.45,0.04999999999999999,5,5.162813362491543,0.0,0,0,0,500,0.00460830826930793,0.9953916917306921,25.000016677940778,5.99182245303757e-14,0.9999999994082648,-0.0021681957156351166,25.005069315493813,0.05768606811761856,0.0,0.0,179.999755859375,40.07240293510149,0
3.0955962277948856,0.5,0.04999999999999999,5,5.162816256010061,0.06683674160671434,0.0003848190126895728,1.9805393105100473,1.97796663132362,500,0.0046083093852138275,0.9953916906147862,25.00001880688012,5.99182245303757e-14,0.9999999579714427,-0.30618127212762447,25.005076264284583,0.05768606811761856,-0.001373291015625,0.008483094163239002,-179.9898223876953,40.07240293510149,0
3.1455962285399437,0.55,0.050000000000000044,5,5.162819149528582,0.1502549693613031,0.0008633469061672782,4.441974660984246,4.43864115976732,500,0.004608310536491614,0.9953916894635084,25.00002096432445,5.99182245303757e-14,0.9999999044372551,-0.3926446135724796,25.00508288823147,0.05738503485918045,-0.005920409690588713,0.04325558617711067,-179.92568969726562,40.07240293510149,0
3.1955962292850018,0.6,0.050000000000000044,5,5.162822043047095,0.2254619756522927,0.0012940998841073602,6.657040601718893,6.654118505677071,500,0.004608311697452452,0.9953916883025475,25.00002312333862,0,0.9999998500337354,-0.3931422640176644,25.005089202807312,0.05565020442008972,-0.009307858534157276,0.07378652691841125,-179.8212432861328,40.07240293510149,0
3.24559623003006,0.65,0.04999999999999993,5,5.162824936565611,0.4458524206046682,0.0025626685855194065,13.18720691856765,13.17361208074892,500,0.004608312924763028,0.995391687075237,25.000026432628772,0,0.9999996335125295,-1.612209736129774,25.005095473736844,0.053206782788038254,-0.010803221724927425,0.09130596369504929,-179.69674682617188,40.07240293510149,0
3.295596230775118,0.7,0.050000000000000044,5,5.162827830084124,1.0342600424113093,0.005977726487187512,30.809997295121157,30.69204041334673,500,0.004608315398318583,0.9953916846016814,25.00004901867152,5.99182245303757e-14,0.9999987486911323,-7.583982897849652,25.005102066577592,0.0505443699657917,-0.011322021484375,0.09821811318397522,-179.55169677734375,40.07240293510149,0
3.345596231520176,0.75,0.04999999999999993,5,5.162830723602643,1.706218278543087,0.009876779701988615,50.839753478724305,50.761202208854314,500,0.004608319905792995,0.995391680094207,25.00009539909945,0,0.9999974428674384,-11.027045011403894,25.005109191467,0.047452736645936966,-0.011199951171875,0.09942705929279327,-179.3970489501953,40.07240293510149,0
3.395596232265234,0.8,0.050000000000000044,5,5.162833617121168,2.3797691901842613,0.01377576147582697,70.90937922352477,70.79981886479916,500,0.004608326536533767,0.9953916734634662,25.000171991703837,5.99182245303757e-14,0.9999957465480036,-13.890126015742169,25.00511703915498,0.04428651183843613,-0.010925290174782276,0.0982932448387146,-179.23609924316406,40.07240293510149,0
3.445596233010292,0.85,0.050000000000000044,5,5.162836510639689,3.0533028943654656,0.017674643643994816,90.97849226224984,90.83792359926596,500,0.004608335676828812,0.9953916643231712,25.000286614797687,5.99182245303757e-14,0.9999936595962048,-16.76468875479101,25.005125763649175,0.0410194955766201,-0.010437010787427425,0.09544505923986435,-179.07208251953125,40.07240293510149,0
3.49559623375535,0.9,0.04999999999999993,5,5.162839404158204,3.726814493463686,0.021573397858149497,111.0469466781064,110.87537071476568,500,0.004608347795449988,0.9953916522045501,25.000447378813703,0,0.9999911804323003,-19.650853270066406,25.005135479336673,0.03774189576506615,-0.009918212890625,0.09172260761260986,-178.90859985351562,40.07240293510149,0
3.545596234500408,0.95,0.050000000000000044,5,5.162842297676722,4.4002991073208735,0.02547199587104909,131.11459707470908,130.91201503341,500,0.00460836336514338,0.9953916366348566,25.000662462254525,5.99182245303757e-14,0.9999883074600051,-22.54874210031722,25.005146076880067,0.034515656530857086,-0.009368896484375,0.08780207484960556,-178.74781799316406,40.07240293510149,0
3.5955962352454662,1,0.04999999999999993,5,5.162845191195238,5.073751956678757,0.029370410019527796,151.1813010621442,150.947714379142,500,0.004608382854406872,0.9953916171455931,25.000939968804914,5.99182245303757e-14,0.99998503910187,-25.458481161843533,25.00515713576658,0.03138243034482002,-0.00885009579360485,0.08414109796285629,-178.5916748046875,40.07240293510149,0
3.6455962359905243,1.05,0.050000000000000044,5,5.162848084713757,5.747168142473018,0.033268611946898466,171.24691268066434,170.9823230115879,482.4672775928622,0.004608406749295973,0.995391593250704,25.0012883054049,5.99182245303757e-14,0.9999813737219909,-28.38019847214459,25.005168669923933,0.028378520160913467,-0.00833129696547985,0.080896757543087,-178.44168090820312,40.07240293510149,0
3.6955962367355824,1.1,0.050000000000000044,5,5.16285097823227,6.420542802376871,0.037166573509135145,191.3112870651731,191.01569628333644,400.6320673967921,0.004608435538246779,0.9953915644617533,25.001715918619425,5.99182245303757e-14,0.9999773096763909,-31.314024956303847,25.005180714750395,0.02553729899227619,-0.007843017578125,0.0780007541179657,-178.29888916015625,40.07240293510149,0
3.7455962374806404,1.15,0.050000000000000044,5,5.162853871750788,7.093871100816731,0.04106426671707663,211.37428014772294,211.04769034289745,338.74924863969886,0.004608469713056756,0.9953915302869433,25.002231311315995,0,0.9999728453207833,-34.26009455134654,25.005193304021304,0.02286369353532791,-0.007232665549963713,0.07502279430627823,-178.16522216796875,40.07240293510149,0
3.7955962382256985,1.2,0.050000000000000044,5,5.162856765269308,7.767148146608693,0.0449616632596488,231.4357462033491,231.0781596843274,290.81998701255395,0.004608509777507727,0.9953914902224923,25.00284319188296,5.99182245303757e-14,0.9999679789620032,-37.21854393139516,25.00520647049683,0.02040775492787361,-0.0064697242341935635,0.0637803003191948,-178.03990173339844,40.07240293510149,0
3.8455962389707565,1.25,0.04999999999999982,5,5.162859658787831,8.440369093304431,0.04885873508473659,251.49554084005067,251.10696013259127,252.94320340031146,0.004608556237221623,0.9953914437627783,25.00356029780812,5.99182245303757e-14,0.9999627089015153,-40.189513037893924,25.00522024526998,0.018131451681256294,-0.005676268599927425,0.05368528515100479,-177.9261932373047,40.07240293510149,0
3.8955962397158146,1.3,0.050000000000000044,5,5.162862552306348,9.113529104686013,0.15275545419944364,271.5535199706466,271.1339478170076,222.49251169743215,0.004608609603280044,0.99539139039672,25.004391458009536,5.99182245303757e-14,0.9999570334400214,-43.17314502632344,25.00523465803832,-0.029067475348711014,0.007668057456612587,0.04861728474497795,-177.9510955810547,40.07240293510149,0
3.9455962404608727,1.35,0.050000000000000044,5,5.162865445824867,9.786623242767133,0.15665179202176513,291.60953647557506,291.15897583920486,197.6452337647716,0.004608670404444239,0.9953913295955558,25.00534580429047,0,0.9999509503955285,-46.169585872991284,25.005249738097916,-0.015120633877813816,0.011627314612269402,0.047176115214824677,-178.04127502441406,40.07240293510149,0
3.9955962412059307,1.4,0.050000000000000044,5,5.162868339343386,10.459639739872637,0.1605476804346981,311.6632397327526,311.1816941127185,177.0040513384355,0.004608739912992233,0.9953912600870077,25.006445360345822,5.99182245303757e-14,0.9999444193875178,-49.17895490320678,25.00526557892931,-0.012737673707306385,0.011083911173045635,0.04900660365819931,-178.11753845214844,40.07240293510149,0
4.045596241950989,1.45,0.050000000000000044,5,5.162871232861906,11.132586158097684,0.16444316321540844,331.7148550843245,331.2023276254325,159.83985873223654,0.004608817323611348,0.9953911826763886,25.007676108223734,0,0.9999375083538439,-52.201459754333804,25.005282086805096,-0.011331995949149132,0.009868605993688107,0.05361698195338249,-178.20486450195312,40.07240293510149,0
4.095596242696047,1.5,0.04999999999999982,5,5.162874126380423,11.805453508974399,0.16833818833488043,351.764114719548,351.2206089742627,145.35979570816164,0.004608903623215943,0.995391096376784,25.00905511219628,0,0.9999301916729463,-55.23723915700673,25.00529932695673,-0.009483755566179752,0.008436698466539383,0.05330962315201759,-178.27169799804688,40.07240293510149,0
4.145596243441105,1.55,0.050000000000000044,5,5.162877019898943,12.478230972535131,0.1722326931620899,371.8106962548537,371.23621626766845,132.99080198876655,0.004609000007201422,0.9953909999927986,25.010603043579977,5.99182245303757e-14,0.9999224386134331,-58.286427108779954,25.00531737620031,-0.008334699086844921,0.0069218650460243225,0.04375419020652771,-178.33212280273438,40.07240293510149,0
4.195596244186163,1.6,0.050000000000000044,5,5.162879913417463,13.150919043306262,0.17612668056218947,391.8546144418233,391.2491642283376,122.37664059758484,0.0046091064529587885,0.9953908935470412,25.01231944294659,5.99182245303757e-14,0.9999142734841803,-61.34921158754405,25.005336208549068,-0.007174081634730101,0.005693902261555195,0.03052411414682865,-178.3870086669922,40.07240293510149,0
4.245596244931221,1.65,0.050000000000000044,5,5.162882806935982,13.82350870240236,0.18002009833006516,411.8956005632223,411.25918454816957,113.18269405812272,0.004609223979207238,0.9953907760207927,25.014221900915857,0,0.9999056759755719,-64.42574220042566,25.005355880473303,-0.006153904367238283,0.004621822852641344,0.016481244936585426,-178.4344940185547,40.07240293510149,0
4.295596245676279,1.7,0.050000000000000044,5,5.162885700454499,14.496000491237362,0.18391294960228416,431.93367076771045,431.26629334477445,105.18638557408235,0.00460935256958963,0.9953906474304104,25.016310051712082,0,0.9998966673600779,-67.5163192517187,25.005376366544283,-0.005276888143271208,0.003807630157098174,0.0044806040823459625,-178.47523498535156,40.07240293510149,0
4.345596246421337,1.75,0.04999999999999982,5,5.162888593973016,15.168393919782845,0.18780523154469753,451.9688104702506,451.2704760495899,98.19798515508107,0.00460949232837335,0.9953905076716266,25.018585614782353,0,0.9998872624625579,-70.62270134957824,25.00539765146641,-0.004513835068792105,0.003106875577941537,-0.005710037890821695,-178.5093994140625,40.07240293510149,0
4.395596247166395,1.8,0.050000000000000044,5,5.162891487491537,15.840678076528588,0.19169688099635537,472.0006945595203,471.271408047558,92.03873338635087,0.004609644511534146,0.9953903554884659,25.021070261555394,5.99182245303757e-14,0.9998774337275952,-73.74339249508577,25.005419803614757,-0.004003187175840139,0.00260353647172451,-0.01294320821762085,-178.53855895996094,40.07240293510149,1
4.445596247911453,1.85,0.050000000000000044,5,5.162894381010055,16.51284805103412,0.19558786953467566,492.0291767365249,491.26894325968703,86.58269478032156,0.004609809725015678,0.9953901902749843,25.02377438438924,0,0.9998671790572975,-76.87857826562593,25.005442840115904,-0.003381334012374282,0.0021247437689453363,-0.018769359216094017,-178.56295776367188,40.07240293510149,1
4.495596248656511,1.9,0.050000000000000044,5,5.16289727452857,17.160302992564684,0.19925764287112246,511.257047613965,509.87600012962827,81.93914975286069,0.004609976014245668,0.9953900239857544,25.02649072319116,5.99182245303757e-14,0.9998568988467543,-74.37730579446584,25.005466776873675,-0.002946849213913083,0.0017412361921742558,-0.02353000082075596,-178.58355712890625,40.07240293510149,1
4.545596249401569,1.95,0.050000000000000044,5,5.162900168047084,17.741937742361156,0.20251115393799668,528.4961557484872,526.2282686306046,78.2938442286238,0.004610121152422456,0.9953898788475776,25.028845039375312,5.99182245303757e-14,0.9998473242405502,-69.05888523478227,25.00549162781033,-0.002589188748970628,0.0012166253291070461,-0.055174265056848526,-178.59925842285156,40.07240293510149,1
4.595596250146627,2,0.04999999999999982,5,5.162903061565596,18.1774288038789,0.20476716311744408,539.5841323639085,538.2163687840655,76.11844357089844,0.004610209194190099,0.9953897908058099,25.03022017871018,5.99182245303757e-14,0.999840006984202,-49.72211959327592,25.0055174068832,-0.0024386730510741472,0.000702609948348254,-0.11014362424612045,-178.60971069335938,40.07240293510149,1
4.6455962508916855,2.05,0.050000000000000266,5,5.162905955084112,18.478872784997584,0.2063148055421272,547.2296297864469,546.4110275393095,75.13811482600849,0.004610253639155712,0.9953897463608443,25.03087720437736,0,0.9998349300565328,-34.184553891183626,25.005544126832604,-0.002189036225900054,0.00027196257724426687,-0.16308441758155823,-178.61563110351562,40.07240293510149,1
4.6955962516367435,2.1,0.04999999999999982,5,5.162908848602634,17.915011770072066,0.044018933364940706,528.0212374292961,0.15447221249421064,76.4321872941482,0.004610258260465101,0.9953897417395349,25.030874248043347,5.99182245303757e-14,0.9998347642123311,-0.23731859160586052,25.005571799357767,-0.0020389885175973177,-9.155259613180533e-05,-0.20617607235908508,-178.61761474609375,40.07240293510149,1
4.745596252381802,2.15,0.04999999999999982,5,5.162911742121138,17.34873695287116,0.04261575488760144,511.3310355867558,0.04351729834606936,77.74525293890711,0.004610258666992221,0.9953897413330077,25.030863632228545,0,0.9998347320417081,-0.23520365476094798,25.005600435325448,-0.002235016319900751,-0.0002746581449173391,-0.2152055948972702,-178.61782836914062,40.07240293510149,1
4.79559625312686,2.2,0.050000000000000266,5,5.162914635639665,16.7825765454688,0.04122325785816652,494.6442062380042,0.0261660449955424,79.01272575146483,0.004610259074393727,0.9953897409256063,25.030853035632504,0,0.9998347001428298,-0.23428358674293046,25.00563010031044,-0.002136952942237258,-0.00024414045037701726,-0.18248897790908813,-178.61782836914062,40.07240293510149,1
4.845596253871918,2.25,0.04999999999999982,5,5.1629175291581815,16.216513269320462,0.03983212077547088,477.9602398811235,0.01890706839529131,80.2393885106632,0.004610259482711568,0.9953897405172885,25.03084245668191,5.99182245303757e-14,0.9998346681320832,-0.23589019712986703,25.00566069106577,-0.002091211499646306,-0.00021362301777116954,-0.14346128702163696,-178.61785888671875,40.07240293510149,1
4.895596254616976,2.3,0.050000000000000266,5,5.1629204226767,15.65054860602909,0.03844191874268615,461.2791801682845,0.01788355796195956,81.42276137756568,0.00461025989229556,0.9953897401077044,25.030831896572238,0,0.9998346359025967,-0.23749644991514096,25.005692272060685,-0.0021093382965773344,-0.00018310548330191523,-0.10918739438056946,-178.61785888671875,40.07240293510149,1
4.945596255362034,2.35,0.04999999999999982,5,5.162923316195218,15.084692037887299,0.03705216899767687,444.60130655964537,0.01854105935775088,82.55682211519985,0.004610260303295864,0.9953897396967042,25.030821357905666,0,0.9998346034233989,-0.23910226560103362,25.005724990789417,-0.0021728321444243193,-0.0001525879488326609,-0.08188030123710632,-178.61785888671875,40.07240293510149,1
4.995596256107092,2.4,0.050000000000000266,5,5.162926209713736,14.51892921157,0.03566265495338179,427.9261959999266,0.019247580491140694,83.6462621196621,0.004610260715590652,0.9953897392844093,25.030810838572563,0,0.9998345707183666,-0.24070770796080576,25.00575874540425,-0.002091211499646306,-0.00012207030522404239,-0.060911621898412704,-178.61785888671875,40.07240293510149,1
5.04559625685215,2.45,0.04999999999999982,5,5.162929103232254,13.953254211024257,0.03427336280167457,411.25367411570227,0.02000962829440645,84.69226249287549,0.004610261129147842,0.9953897388708521,25.030800338017855,0,0.9998345377934124,-0.2423127935699253,25.005793513845163,-0.0021093382965773344,-0.00012207030522404239,-0.045195359736680984,-178.61785888671875,40.07240293510149,1
5.095596257597208,2.5,0.04999999999999982,5,5.162931996750772,13.387662984831119,0.0328842833929645,394.583621491194,0.020834418285034954,85.69507890153055,0.004610261543958971,0.9953897384560411,25.03078985609568,5.99182245303757e-14,0.9998345046497111,-0.24391752670274805,25.005829296000286,-0.0021728321444243193,-9.155272709904239e-05,-0.03345426544547081,-178.61785888671875,40.07240293510149,1
5.145596258342266,2.55,0.050000000000000266,5,5.16293489026929,12.822152760466174,0.03149541083479985,377.91595640434696,0.021730209938353607,86.65439446396817,0.004610261960030034,0.99538973803997,25.030779392910574,0,0.9998344712855075,-0.2455219042791587,25.00586610355964,-0.0021547055803239346,-9.155277075478807e-05,-0.02823599986732006,-178.61785888671875,40.07240293510149,1
5.195596259087324,2.6,0.04999999999999982,5,5.162937783787808,12.256719424509326,0.03010673609125682,361.250557611999,0.022706612312108382,87.57051991497633,0.004610262377351333,0.9953897376226487,25.030768948295304,0,0.9998344377022599,-0.2471259349953784,25.005903933319416,-0.00221688998863101,-9.155274892691523e-05,-0.0231065284460783,-178.61785888671875,40.07240293510149,1
5.245596259832382,2.65,0.050000000000000266,5,5.162940677306327,11.691360174680694,0.028718253551149927,344.5873425151156,0.023775074012614073,88.44308001114051,0.004610262795930423,0.9953897372040695,25.030758522381404,0,0.9998344038979143,-0.2487296141511696,25.005942797131752,-0.00219913711771369,-9.155274165095761e-05,-0.0178882647305727,-178.61785888671875,40.07240293510149,1
5.29559626057744,2.7,0.04999999999999982,5,5.162943570824846,11.126070848448656,0.027329954444753144,327.926188423061,0.02494868548255882,89.27244579544914,0.004610263215756249,0.9953897367842438,25.030748114978167,0,0.9998343698742406,-0.25033294516994287,25.005982688576808,-0.002136952942237258,-9.155274165095761e-05,-0.013523774221539497,-178.61785888671875,40.07240293510149,1
5.345596261322498,2.75,0.04999999999999982,5,5.162946464343365,10.560848576420211,0.025941833732877395,311.2670107587758,0.026245526814701735,90.05817793581618,0.004610263636838049,0.995389736363162,25.03073772624623,0,0.9998343356288579,-0.2519359237808861,25.00602361985102,-0.00221688998863101,-6.103515625e-05,-0.01010184921324253,-178.61785888671875,40.07240293510149,1
5.395596262067556,2.8,0.050000000000000266,5,5.162949357861884,9.995689157188997,0.02455388319204915,294.60968568583075,0.02768446406925977,90.80071353529885,0.004610264059163289,0.9953897359408367,25.030727355969077,5.99182245303757e-14,0.9998343011638775,-0.25353855706321105,25.00606558122314,-0.00219913711771369,-6.103515625e-05,-0.007479056715965271,-178.61785888671875,40.07240293510149,1
5.445596262812614,2.85,0.04999999999999982,5,5.162952251380403,9.430591698453584,0.023166103409800746,277.9541868993807,0.02929051367117603,91.49795469959695,0.004610264482782348,0.9953897355172177,25.030717005020335,5.99182245303757e-14,0.9998342664684153,-0.25514081983236103,25.006108623311263,-0.00219913711771369,-6.103515625e-05,-0.005525622516870499,-178.61785888671875,40.07240293510149,1
5.4955962635576725,2.9,0.050000000000000266,5,5.162955144898922,8.865549387605698,0.021778481110803365,261.300313601337,0.031094796227493098,92.15233427844413,0.004610264907633285,0.9953897350923667,25.030706672327653,0,0.9998342315548175,-0.2567427447275776,25.00615268630844,-0.00219913711771369,-6.103515625e-05,-0.004084452986717224,-178.61785888671875,40.07240293510149,1
5.545596264302731,2.95,0.04999999999999982,5,5.162958038417441,8.300558234310369,0.020391010859993015,244.64794817644795,0.03313660760115244,92.76388572786111,0.004610265333713886,0.9953897346662861,25.0306963578534,0,0.999834196423128,-0.258344333539938,25.006197769781295,-0.00219913711771369,-6.103515625e-05,-0.004084452986717224,-178.61785888671875,40.07240293510149,1
5.595596265047789,3,0.04999999999999982,5,5.16296093193596,7.735614796255578,0.019003689804975785,227.99698916171377,0.035466373496694285,93.33264230057965,0.004610265761021984,0.995389734238978,25.030686061560573,5.99182245303757e-14,0.999834161073394,-0.25994558819989094,25.006243870344633,-0.00219913711771369,-6.103515625e-05,-0.0027184151113033295,-178.61785888671875,40.07240293510149,1
5.645596265792847,3.05,0.050000000000000266,5,5.162963825454479,7.17071489468929,0.01761651500056006,211.34731338861633,0.03814996357830947,93.85863698618931,0.004610266189555477,0.9953897338104445,25.030675783413585,5.99182245303757e-14,0.9998341255056591,-0.2615465104955474,25.006290986362217,-0.002260089386254549,-6.103515625e-05,-0.0021378491073846817,-178.61785888671875,40.07240293510149,1
5.695596266537905,3.1,0.04999999999999982,5,5.162966718972998,6.605854860164854,0.01622948713926814,194.6988126997763,0.04127472858098549,94.34190255541633,0.0046102666193123245,0.9953897333806877,25.03066552337765,0,0.9998340897199702,-0.26314710234137106,25.006339113413787,-0.0022426885552704334,-6.103515625e-05,-0.0016187547007575631,-178.61785888671875,40.07240293510149,1
5.745596267282963,3.15,0.050000000000000266,5,5.162969612491517,6.041030122573359,0.014842608378749494,178.0513523921021,0.04496111466885256,94.78247148869072,0.004610267050290553,0.9953897329497094,25.030655281419286,5.99182245303757e-14,0.99983405371637,-0.2647473654982778,25.006388248736357,-0.002181736286729574,-6.103515625e-05,-0.001188452821224928,-178.61785888671875,40.07240293510149,1
5.795596268028021,3.2,0.04999999999999982,5,5.162972506010036,5.476236513397202,0.013455886978549393,161.40480959898446,0.04937560770619138,95.18037601357145,0.004610267482488236,0.9953897325175117,25.03064505750575,5.99182245303757e-14,0.9998340174949053,-0.26634730184320254,25.00643838694532,-0.00219913711771369,-6.103515625e-05,-0.0008879245724529028,-178.61785888671875,40.07240293510149,1
5.845596268773079,3.25,0.04999999999999982,5,5.162975399528555,4.911468545117155,0.012069336340630166,144.75902257821102,0.054760132013227415,95.53564800419468,0.004610267915903519,0.9953897320840965,25.03063485160567,0,0.999833981055618,-0.267946913091328,25.00648952422472,-0.00219913711771369,-6.103515625e-05,-0.0006420377176254988,-178.61785888671875,40.07240293510149,1
5.895596269518137,3.3,0.050000000000000266,5,5.1629782930470745,4.346720779579338,0.01068298349896925,128.11383104286818,0.06147820857209696,95.8483189965194,0.00461026835053459,0.9953897316494654,25.03062466368823,5.99182245303757e-14,0.9998339443985549,-0.2695462010660033,25.00654165429455,-0.00219913711771369,-6.103516352595761e-05,-0.00045762263471260667,-178.61785888671875,40.07240293510149,1
5.945596270263195,3.35,0.04999999999999982,5,5.1629811865655935,3.781985146779394,0.009296872444375095,111.46899713632193,0.07010414713440254,96.11841999807021,0.004610268786379714,0.9953897312136203,25.030614493724045,0,0.9998339075237572,-0.27114516742342754,25.006594772358312,-0.00219913711771369,-6.103516352595761e-05,-0.00045762263471260667,-178.61785888671875,40.07240293510149,1
5.995596271008253,3.4,0.050000000000000266,5,5.1629840800841125,3.2172521581871263,0.007911087310689936,94.82424119382934,0.0816049008374128,96.3459814124383,0.004610269223437188,0.9953897307765628,25.03060434168424,5.99182245303757e-14,0.9998338704312709,-0.2727438139222999,25.006648871307334,-0.00219913711771369,-6.103515625e-05,-0.00027320755179971457,-178.61785888671875,40.07240293510149,1
6.045596271753311,3.45,0.04999999999999982,5,5.1629869736026315,2.6525039942802966,0.006525781631887448,78.17903800790808,0.0977561810559725,96.53103247069146,0.004610269661705382,0.9953897303382946,25.03059420754124,0,0.999833833121137,-0.2743421421513212,25.006703945434936,-0.00219913711771369,-6.103515625e-05,-0.00027320755179971457,-178.61785888671875,40.07240293510149,1
6.095596272498369,3.5,0.04999999999999982,5,5.1629898671211505,2.087712037716833,0.005141296092747236,61.53254412489853,0.12225674105122158,96.67360059712912,0.004610270101182703,0.9953897298988172,25.030584091268167,5.99182245303757e-14,0.9998337955934009,-0.27594015379796155,25.00675998686836,-0.00219913711771369,-6.103515625e-05,-0.00027320755179971457,-178.61785888671875,40.07240293510149,1
6.145596273243427,3.55,0.050000000000000266,5,5.162992760639669,1.5228148475415983,0.0037585301267323524,44.882948674443604,0.16455963475846166,96.7780341152784,0.004610270541762736,0.9953897294582372,25.03057399102198,0,0.9998337578702906,-0.277537901631297,25.00681689262592,-0.00219913711771369,-6.103515625e-05,-0.00027320755179971457,-178.61785888671875,40.07240293510149,1
6.195596273988485,3.6,0.04999999999999982,5,5.162995654158183,0.957619995348685,0.0023811019019790466,28.22458018072301,0.2614819822691602,96.84394570202036,0.0046102709834541225,0.9953897290165459,25.030563906953148,5.99182245303757e-14,0.9998337199497767,-0.2791353817028889,25.006874666480712,-0.00219913711771369,-6.103515625e-05,-6.147169915493578e-05,-178.61785888671875,40.07240293510149,1
6.245596274733543,3.65,0.050000000000000266,5,5.1629985476766995,0.3906017319126867,0.0022157215384935665,11.512429952388516,11.30717138215071,96.87086469800722,0.004610271426266394,0.9953897285737336,25.030553839227196,5.99182245303757e-14,0.9998336818296526,-0.2807325896044873,25.00693331295929,-0.00219913711771369,-6.103515625e-05,-6.147169915493578e-05,-178.61785888671875,40.07240293510149,1
6.2955962754786015,3.7,0.04999999999999982,5,5.163001441195164,0.031156720821316864,0.00016927514631776323,0.9183708180062989,0.8346982033551448,96.86238780313924,0.004610271870272058,0.9953897281297279,25.030543789101046,5.99182245303757e-14,0.9998336434943195,-0.28232949035599225,25.00699289302713,-0.00219913711771369,-6.103515625e-05,-6.147169915493578e-05,-178.61785888671875,40.07240293510149,1
6.3455962762236595,3.75,0.04999999999999982,5,5.163004334713682,0.0,2.575492808935225e-10,1.449848932374208e-06,1.2305568287610466e-06,96.83937305763696,0.004610272315478419,0.9953897276845216,25.030533756701345,5.99182245303757e-14,0.9998336049420178,-0.2839260811803914,25.007053405958686,-0.00219913711771369,-6.103515625e-05,-6.147169915493578e-05,-178.61785888671875,40.07240293510149,1
6.395596276968718,3.8,0.050000000000000266,5,5.1630072282322,0.0,4.603379845898914e-14,2.5912700313284264e-10,2.1995893378127029e-10,96.81602473044319,0.004610272761886262,0.9953897272381137,25.030523742042533,5.99182245303757e-14,0.9998335661723184,-0.28552236234792494,25.007114844711282,-0.00219913711771369,-6.103515625e-05,-6.147169915493578e-05,-178.61785888671875,40.07240293510149,1
6.445596277713776,3.85,0.04999999999999982,5,5.163010121750718,0.0,9.996958494727398e-16,5.627347820884022e-12,4.776751779591641e-12,96.79251464326515,0.0046102732098242515,0.9953897267901758,25.030513750818955,5.99182245303757e-14,0.9998335271150657,-0.2871181767988442,25.007177489104663,-0.00219913711771369,-6.103515625e-05,-6.147169915493578e-05,-178.61785888671875,40.07240293510149,1
6.495596278458834,3.9,0.050000000000000266,5,5.163013015269236,0.0,2.1709799384183282e-17,1.2220580996072715e-13,1.0373383698710414e-13,96.7688853147188,0.004610273658960409,0.9953897263410396,25.030503777280444,5.99182245303757e-14,0.9998334878405548,-0.2887136719624591,25.0072410311588,-0.00219913711771369,-6.103515625e-05,-6.147169915493578e-05,-178.61785888671875,40.07240293510149,1
6.545596279203892,3.95,0.04999999999999982,5,5.163015908787754,0.0,4.714563621757274e-19,2.6538579426584877e-15,2.2527138025876807e-15,96.7451369542015,0.004610274109293613,0.9953897258907064,25.0304938214083,5.99182245303757e-14,0.999833448348829,-0.29030882959508464,25.007305461675685,-0.00219913711771369,-6.103515625e-05,-6.147169915493578e-05,-178.61785888671875,40.07240293510149,1
6.59559627994895,4,0.04999999999999982,5,5.163018802306272,0.0,1.0238240959586541e-20,5.76317260199276e-17,4.892037412133316e-17,96.7212697750449,0.004610274560822771,0.9953897254391773,25.030483883184104,0,0.9998334086399374,-0.29190364119667417,25.007370769755653,-0.00219913711771369,-6.103515625e-05,-6.147169915493578e-05,-178.61785888671875,40.07240293510149,1
6.645596280694008,4.05,0.04999999999999982,5,5.16302169582479,0.0,2.2233591148531898e-22,1.251543292562287e-18,1.0623657339461558e-18,96.69728398922264,0.004610275013546846,0.9953897249864532,25.03047396259069,5.99182245303757e-14,0.9998333687139254,-0.2934981075018353,25.007436945654604,-0.00219913711771369,-6.103515625e-05,-6.147169915493578e-05,-178.61785888671875,40.07240293510149,1
6.695596281439066,4.1,0.05000000000000071,5,5.163024589343308,0.0,4.8283339832033634e-24,2.7178994178743495e-20,2.3070760214772646e-20,96.67317981134953,0.004610275467464824,0.9953897245325352,25.030464059611234,5.99182245303757e-14,0.9998333285708412,-0.2950922294825811,25.0075039780628,-0.00219913711771369,-6.103515625e-05,-6.147169915493578e-05,-178.61785888671875,40.07240293510149,1
6.745596282184124,4.15,0.04999999999999982,5,5.1630274828618266,0.0,1.0485366510418854e-25,5.902279278846013e-22,5.0101204002424595e-22,96.64895745472538,0.00461027592257577,0.9953897240774242,25.0304541742301,5.99182245303757e-14,0.9998332882107301,-0.2966860080088665,25.007571856754055,-0.00219913711771369,-6.103515625e-05,-6.147169915493578e-05,-178.61785888671875,40.07240293510149,1
6.795596282929182,4.2,0.04999999999999982,5,5.163030376380345,0.0,2.277048192650695e-27,1.2817645133781896e-23,1.0880199883519831e-23,96.62461713519632,0.004610276378878751,0.9953897236211212,25.03044430643189,5.99182245303757e-14,0.9998332476336407,-0.29827944418442626,25.007640570057617,-0.00219913711771369,-6.103515625e-05,-6.147169915493578e-05,-178.61785888671875,40.07240293510149,1
6.84559628367424,4.25,0.04999999999999982,5,5.163033269898863,0.0,4.94496591924569e-29,2.7835509792125234e-25,2.3628060929117285e-25,96.60015906734958,0.004610276836372913,0.9953897231636271,25.0304344562025,0,0.9998332068396173,-0.2998725390107542,25.007710107317678,-0.00219913711771369,-6.103515625e-05,-6.147169915493578e-05,-178.61785888671875,40.07240293510149,1
6.895596284419298,4.3,0.04999999999999982,5,5.163036163417381,0.0,1.0738787348445377e-30,6.044927128511708e-27,5.1312132672170574e-27,96.57558346822705,0.004610277295057411,0.9953897227049426,25.030424623528006,5.99182245303757e-14,0.9998331658287084,-0.3014652937194987,25.007780456549654,-0.00219913711771369,-6.103515625e-05,-6.147169915493578e-05,-178.61785888671875,40.07240293510149,1
6.945596285164356,4.35,0.05000000000000071,5,5.163039056935899,0.0,2.3321043611897255e-32,1.3127552312385006e-28,1.1143275016418773e-28,96.5508905536656,0.004610277754931478,0.9953897222450685,25.03041480839579,5.99182245303757e-14,0.9998331246009582,-0.3030577094401814,25.007851606718248,-0.00219913711771369,-6.103515625e-05,-6.147169915493578e-05,-178.61785888671875,40.07240293510149,1
6.995596285909414,4.4,0.04999999999999982,5,5.163041950454417,0.0,5.064458150309638e-34,2.8508159730285147e-30,2.4199003555072878e-30,96.5260805418678,0.004610278215994354,0.9953897217840056,25.030405010793288,5.99182245303757e-14,0.9998330831564145,-0.30464978752861105,25.00792354557001,-0.00219913711771369,-6.103515625e-05,-6.147169915493578e-05,-178.61785888671875,40.07240293510149,1
7.045596286654472,4.45,0.04999999999999982,5,5.163044843972936,0.0,3.423421695188356e-36,1.9270642901990638e-32,1.6357813080202225e-32,96.50117175882914,0.004610278678104148,0.9953897213218958,25.03039522826316,5.99182245303757e-14,0.9998330415254019,-0.30624159148740765,25.007996155582077,-0.00219913711771369,-6.103515625e-05,-6.147169915493578e-05,-178.61785888671875,40.07240293510149,1
7.09559628739953,4.5,0.04999999999999982,5,5.163047737491455,0.0,6.659339980431078e-38,3.748580857383184e-34,3.1819703393505816e-34,96.47613206188335,0.004610279141512514,0.9953897208584875,25.030385465165523,5.99182245303757e-14,0.9998329996538733,-0.3078330108947379,25.008069616932403,-0.00219913711771369,-6.103515625e-05,-6.147169915493578e-05,-178.61785888671875,40.07240293510149,1
7.1455962881445885,4.55,0.04999999999999982,5,5.163050631009974,0.0,1.2953774363953628e-39,7.291759259717767e-36,6.189577482769939e-36,96.45097591718067,0.0046102796061077206,0.9953897203938923,25.030375719565598,5.99182245303757e-14,0.999832957565685,-0.30942409661583703,25.008143831871337,-0.00219913711771369,-6.103515625e-05,-6.147169915493578e-05,-178.61785888671875,40.07240293510149,1
7.1955962888896465,4.6,0.05000000000000071,5,5.163053524528493,0.0,2.51978400650076e-41,1.4184016390220195e-37,1.204004376584169e-37,96.42570354360139,0.004610280071889197,0.9953897199281108,25.03036599145412,5.99182245303757e-14,0.9998329152608809,-0.3110148500910039,25.0082187885709,-0.00219913711771369,-6.103515625e-05,-6.147169915493578e-05,-178.61785888671875,40.07240293510149,1
7.245596289634705,4.65,0.04999999999999982,5,5.163056418047012,0.0,4.9015358696978535e-43,2.7591035034148504e-39,2.34205465516693e-39,96.40031516202228,0.004610280538856374,0.9953897194611436,25.030356280821877,0,0.9998328727395069,-0.31260527296039187,25.00829447432409,-0.00219913711771369,-6.103515625e-05,-6.147169915493578e-05,-178.61785888671875,40.07240293510149,1
7.295596290379763,4.7,0.04999999999999982,5,5.163059311565531,0.0,9.534581655927474e-45,5.367071862749504e-41,4.5558195932725985e-41,96.37481099244407,0.004610281007008752,0.9953897189929912,25.03034658766086,5.99182245303757e-14,0.9998328300016074,-0.31419536677911214,25.00837087708436,-0.00219913711771369,-6.103515625e-05,-6.147169915493578e-05,-178.61785888671875,40.07240293510149,1
7.345596291124821,4.75,0.04999999999999982,5,5.16306220508405,0.0,1.8547135740853785e-46,1.0440284046497835e-42,8.862209131895026e-43,96.3491912567912,0.00461028147634583,0.9953897185236542,25.030336911963104,5.99182245303757e-14,0.9998327870472277,-0.3157851332977788,25.008447984011354,-0.00219913711771369,-6.103515625e-05,-6.147169915493578e-05,-178.61785888671875,40.07240293510149,1
7.395596291869879,4.8,0.05000000000000071,5,5.163065098602569,0.0,3.6077807529368617e-48,2.0308423791703653e-44,1.7238708932654015e-44,96.32345617615036,0.004610281946867181,0.9953897180531328,25.03032725372185,0,0.9998327438764113,-0.3173745741826201,25.008525782880326,-0.00219913711771369,-6.103515625e-05,-6.147169915493578e-05,-178.61785888671875,40.07240293510149,1
7.445596292614937,4.85,0.04999999999999982,5,5.163067992121088,0.0,7.0178710878092705e-50,3.950402936383573e-46,3.3532817767406626e-46,96.29760597346161,0.004610282418572383,0.9953897175814276,25.030317612930503,5.99182245303757e-14,0.9998327004892031,-0.31896369129066443,25.00860426075326,-0.00219913711771369,-6.103515625e-05,-6.147169915493578e-05,-178.61785888671875,40.07240293510149,1
7.495596293359995,4.9,0.04999999999999982,5,5.163070885639607,0.0,1.3651229567810963e-51,7.684360198880019e-48,6.52283646186985e-48,96.2716408708641,0.004610282891461075,0.995389717108539,25.030307989583378,5.99182245303757e-14,0.9998326568856462,-0.3205524863952546,25.008683405264776,-0.00219913711771369,-6.103515625e-05,-6.147169915493578e-05,-178.61785888671875,40.07240293510149,1
7.545596294105053,4.95,0.04999999999999982,5,5.163073779158126,0.0,2.6554583112836127e-53,1.4947733927755487e-49,1.26883243557359e-49,96.24556109228246,0.004610283365532909,0.9953897166344671,25.03029838367513,0,0.9998326130657852,-0.32214096145565335,25.008763203412855,-0.00219913711771369,-6.103515625e-05,-6.147169915493578e-05,-178.61785888671875,40.07240293510149,1
7.595596294850111,5,0.04999999999999982,5,5.163076672676645,0.0,5.1654521778229816e-55,2.907663532699323e-51,2.468159310516191e-51,96.21936686087545,0.0046102838407875955,0.9953897161592125,25.03028879520133,0,0.9998325690296626,-0.32372911834821033,25.00884364272747,-0.00219913711771369,-6.103515625e-05,-6.147169915493578e-05,-178.61785888671875,40.07240293510149,1
7.645596295595169,5.05,0.05000000000000071,5,5.163079566195164,0.0,1.0048066742602797e-56,5.6561124216606815e-53,4.801175752097006e-53,96.19305840152168,0.004610284317224843,0.9953897156827751,25.030279224157653,5.99182245303757e-14,0.9998325247773221,-0.32531695913015013,25.008924710174313,-0.00219913711771369,-6.103515625e-05,-6.147169915493578e-05,-178.61785888671875,40.07240293510149,1
7.695596296340227,5.1,0.04999999999999982,5,5.163082459713683,0.0,1.954583017015179e-58,1.1002459036354056e-54,9.339402875871071e-55,96.16663593836769,0.004610284794844429,0.9953897152051556,25.030269670540804,0,0.999832480308806,-0.3269044857766388,25.00900639321219,-0.00219913711771369,-6.103515625e-05,-6.147169915493578e-05,-178.61785888671875,40.07240293510149,1
7.745596297085285,5.15,0.04999999999999982,5,5.163085353232202,0.0,3.802132229678618e-60,2.140241535844395e-56,1.8167378548274597e-56,96.1400996972163,0.004610285273646132,0.9953897147263538,25.030260134347657,5.99182245303757e-14,0.9998324356241576,-0.328491700443771,25.00908867880429,-0.00219913711771369,-6.103515625e-05,-6.147169915493578e-05,-178.61785888671875,40.07240293510149,1
7.795596297830343,5.2,0.04999999999999982,5,5.163088246750721,0.0,7.395915840904402e-62,4.163206666697741e-58,3.533919256790657e-58,96.11344990317077,0.004610285753629791,0.9953897142463702,25.030250615575937,0,0.9998323907234181,-0.33007860518549853,25.0091715543698,-0.00219913711771369,-6.103515625e-05,-6.147169915493578e-05,-178.61785888671875,40.07240293510149,1
7.845596298575401,5.25,0.04999999999999982,5,5.16309114026924,0.0,1.4386594790087124e-63,8.098302128202767e-60,6.874208714926336e-60,96.08668678292953,0.004610286234795249,0.9953897137652048,25.030241114223656,5.99182245303757e-14,0.9998323456066308,-0.3316652022627713,25.009255006896865,-0.00219913711771369,-6.103515625e-05,-6.147169915493578e-05,-178.61785888671875,40.07240293510149,1
7.895596299320459,5.3,0.05000000000000071,5,5.163094033787759,0.0,2.798497448918136e-65,1.575291139508621e-61,1.3371793493948564e-61,96.05981056252195,0.004610286717142402,0.9953897132828576,25.030231630289563,5.99182245303757e-14,0.999832300273836,-0.33325149381510266,25.00933902379529,-0.00219913711771369,-6.103515625e-05,-6.147169915493578e-05,-178.61785888671875,40.07240293510149,1
7.945596300065517,5.35,0.04999999999999982,5,5.163096927306278,0.0,5.443684062437463e-67,3.064282265830515e-63,2.6011039568208307e-63,96.03282146951386,0.004610287200671154,0.9953897127993289,25.03022216377269,0,0.9998322547250761,-0.3348374821874337,25.009423592104042,-0.00219913711771369,-6.103515625e-05,-6.147169915493578e-05,-178.61785888671875,40.07240293510149,1
7.9955963008105755,5.4,0.04999999999999982,5,5.163099820824797,0.0,1.058917820951951e-68,5.9607105854736165e-65,5.059727449462347e-65,96.0057197308315,0.004610287685381464,0.9953897123146186,25.03021271467287,5.99182245303757e-14,0.9998322089603912,-0.33642316960596813,25.009508699251,-0.00219913711771369,-6.103515625e-05,-6.147169915493578e-05,-178.61785888671875,40.07240293510149,1
8.045596301555634,5.45,0.04999999999999982,5,5.163102714343316,0.0,2.059837969414004e-70,1.1594946783091892e-66,9.842331637407115e-67,95.97850557488077,0.004610288171273297,0.9953897118287267,25.030203282990044,0,0.999832162979823,-0.33800855849494826,25.009594332350275,-0.00219913711771369,-6.103515625e-05,-6.147169915493578e-05,-178.61785888671875,40.07240293510149,1
8.095596302300692,5.5,0.04999999999999982,5,5.163105607861835,0.0,4.006870409905968e-72,2.2554900328272505e-68,1.914565844294933e-68,95.95117922945612,0.004610288658346659,0.9953897113416533,25.030193868725064,5.99182245303757e-14,0.9998321167834111,-0.339593651163631,25.009680478873747,-0.00219913711771369,-6.103515625e-05,-6.147169915493578e-05,-178.61785888671875,40.07240293510149,1
8.14559630304575,5.55,0.05000000000000071,5,5.163108501380354,0.0,7.794328290599539e-74,4.387470896543568e-70,3.724292289131909e-70,95.92374092377692,0.004610289146601571,0.9953897108533984,25.03018447187884,0,0.9998320703711961,-0.3411784501108735,25.009767126032955,-0.00219913711771369,-6.103515625e-05,-6.147169915493578e-05,-178.61785888671875,40.07240293510149,1
8.195596303790808,5.6,0.04999999999999982,5,5.163111394898873,0.0,1.5161885050916195e-75,8.534708382185251e-72,7.244665259185634e-72,95.89619088647822,0.004610289636038106,0.9953897103639618,25.030175092453078,5.99182245303757e-14,0.9998320237432173,-0.3427629577231767,25.009854261367934,-0.00219913711771369,-6.103515625e-05,-6.147169915493578e-05,-178.61785888671875,40.07240293510149,1
8.245596304535866,5.65,0.04999999999999982,5,5.163114288417392,0.0,2.9493084142818602e-77,1.6601834368233264e-73,1.4092399952361794e-73,95.86852934756715,0.00461029012665633,0.9953897098733436,25.03016573044971,5.99182245303757e-14,0.9998319768995145,-0.34434717657064934,25.009941872208287,-0.00219913711771369,-6.103515625e-05,-6.147169915493578e-05,-178.61785888671875,40.07240293510149,1
8.295596305280924,5.7,0.04999999999999982,5,5.163117181935911,0.0,5.737050013690907e-79,3.229419518052036e-75,2.741280373782789e-75,95.84075653649236,0.004610290618456361,0.9953897093815436,25.03015638587135,5.99182245303757e-14,0.9998319298401266,-0.3459311091137302,25.010029946184545,-0.00219913711771369,-6.103515625e-05,-6.147169915493578e-05,-178.61785888671875,40.07240293510149,1
8.345596306025982,5.75,0.04999999999999982,5,5.16312007545443,0.0,1.1159842615045607e-80,6.281940890499998e-77,5.332402685666048e-77,95.8128726840238,0.004610291111438326,0.9953897088885617,25.030147058720672,0,0.9998318825650925,-0.34751475798830717,25.010118470763757,-0.00219913711771369,-6.103515625e-05,-6.147169915493578e-05,-178.61785888671875,40.07240293510149,1
8.39559630677104,5.8,0.05000000000000071,5,5.163122968972949,0.0,2.1708442939682664e-82,1.2219808013079377e-78,1.0372742635904865e-78,95.7848780203976,0.004610291605602403,0.9953897083943976,25.030137749001312,5.99182245303757e-14,0.9998318350744498,-0.34909812572313703,25.010207433687356,-0.00219913711771369,-6.103515625e-05,-6.147169915493578e-05,-178.61785888671875,40.07240293510149,1
8.445596307516098,5.85,0.04999999999999982,5,5.163125862491468,0.0,4.222800332767807e-84,2.377038344925246e-80,2.017741540797091e-80,95.75677277712248,0.004610292100948756,0.9953897078990512,25.03012845671674,5.99182245303757e-14,0.9998317873682376,-0.35068121501693017,25.010296822577345,-0.00219913711771369,-6.103515625e-05,-6.147169915493578e-05,-178.61785888671875,40.07240293510149,1
8.495596308261156,5.9,0.04999999999999982,5,5.163128756009987,0.0,8.214360419797477e-86,4.6239094036432565e-82,3.9249923250852884e-82,95.72855718519682,0.004610292597477608,0.9953897074025224,25.030119181871385,0,0.9998317394464924,-0.352264028462711,25.010386625305216,-0.00219913711771369,-6.103515625e-05,-6.147169915493578e-05,-178.61785888671875,40.07240293510149,1
8.545596309006214,5.95,0.04999999999999982,5,5.1631316495285065,0.0,1.5978947727612433e-87,8.994637684765833e-84,7.635074691276816e-84,95.70023147684459,0.004610293095189178,0.9953897069048108,25.03010992446957,5.99182245303757e-14,0.9998316913092524,-0.3538465688167913,25.0104768296639,-0.00219913711771369,-6.103515625e-05,-6.147169915493578e-05,-178.61785888671875,40.07240293510149,1
8.595596309751272,6,0.04999999999999982,5,5.1631345430470255,0.0,3.1083066050336236e-89,1.7496826040122045e-85,1.4852139915211078e-85,95.6717958838021,0.004610293594083729,0.9953897064059163,25.03010068451647,5.99182245303757e-14,0.9998316429565538,-0.35542883873240216,25.010567423672455,-0.00219913711771369,-6.103515625e-05,-6.147169915493578e-05,-178.61785888671875,40.07240293510149,1
8.64559631049633,6.05,0.05000000000000071,5,5.1631374365655445,0.0,6.046333054740636e-91,3.4035166941197567e-87,2.889062228676754e-87,95.64325063898598,0.004610294094161526,0.9953897059058385,25.030091462017197,0,0.9998315943884336,-0.3570108410192265,25.01065839530935,-0.00219913711771369,-6.103515625e-05,-6.147169915493578e-05,-178.61785888671875,40.07240293510149,1
8.695596311241388,6.1,0.04999999999999982,5,5.1631403300840635,0.0,1.1761470748033829e-92,6.620600773406059e-89,5.6198730931758996e-89,95.61459597484676,0.004610294595422887,0.9953897054045772,25.03008225697772,5.99182245303757e-14,0.9998315456049277,-0.35859257838638225,25.01074973275729,-0.00219913711771369,-6.103515625e-05,-6.147169915493578e-05,-178.61785888671875,40.07240293510149,1
8.745596311986446,6.15,0.04999999999999982,5,5.1631432236025825,0.0,2.2878738884291828e-94,1.2878574684665803e-90,1.093193398236329e-90,95.58583212497187,0.004610295097868112,0.9953897049021319,25.03007306940384,5.99182245303757e-14,0.9998314966060723,-0.3601740536927653,25.010841424193472,-0.00219913711771369,-6.103515625e-05,-6.147169915493578e-05,-178.61785888671875,40.07240293510149,1
8.795596312731504,6.2,0.04999999999999982,5,5.1631461171211015,0.0,4.45044753464331e-96,2.5051823244624358e-92,2.126516037832152e-92,95.55695932250335,0.004610295601497552,0.9953897043985025,25.030063899302206,0,0.999831447391902,-0.36175526969921284,25.010933457978638,-0.00219913711771369,-6.103515625e-05,-6.147169915493578e-05,-178.61785888671875,40.07240293510149,1
8.845596313476562,6.25,0.04999999999999982,5,5.1631490106396205,0.0,8.657178178097806e-98,4.873174373822638e-94,4.136579579921048e-94,95.52797780167816,0.004610296106311555,0.9953897038936884,25.030054746679298,5.99182245303757e-14,0.9998313979624526,-0.363336229309648,25.011025822500812,-0.00219913711771369,-6.103515625e-05,-6.147169915493578e-05,-178.61785888671875,40.07240293510149,1
8.89559631422162,6.3,0.05000000000000071,5,5.1631519041581395,0.0,1.6840320137031968e-99,9.479509419380832e-96,8.046656058793146e-96,95.4988877963078,0.004610296612310513,0.9953897033876895,25.030045611542448,0,0.999831348317758,-0.36491693533254277,25.011118506312016,-0.00219913711771369,-6.103515625e-05,-6.147169915493578e-05,-178.61785888671875,40.07240293510149,1
8.945596314966679,6.35,0.04999999999999982,5,5.1631547976766585,0.0,3.275861975102724e-101,1.8440005539892804e-97,1.5652753621004911e-97,95.46968954125845,0.004610297119494815,0.9953897028805052,25.030036493898933,5.99182245303757e-14,0.9998312984578531,-0.36649739071291276,25.011211498021794,-0.00219913711771369,-6.103515625e-05,-6.147169915493578e-05,-178.61785888671875,40.07240293510149,1
8.995596315711737,6.4,0.04999999999999982,5,5.1631576911951775,0.0,6.372383433447149e-103,3.5870488217859253e-99,3.0448584737629908e-99,95.44038327098964,0.0046102976278648965,0.9953897023721351,25.03002739375671,5.99182245303757e-14,0.9998312483827709,-0.3680775983027722,25.011304786385153,-0.00219913711771369,-6.103515625e-05,-6.147169915493578e-05,-178.61785888671875,40.07240293510149,1
9.045596316456795,6.45,0.04999999999999982,5,5.1631605847136965,0.0,1.2395941022056685e-104,6.977740634253581e-101,5.923041444160832e-101,95.41096922097712,0.00461029813742117,0.9953897018625788,25.030018311123513,5.99182245303757e-14,0.9998311980925456,-0.3696575610843373,25.011398360242538,-0.00219913711771369,-6.103515625e-05,-6.147169915493578e-05,-178.61785888671875,40.07240293510149,1
9.095596317201853,6.5,0.04999999999999982,5,5.1631634782322156,0.0,2.4112932281778185e-106,1.3573308431863591e-102,1.1521657729702674e-102,95.38144762630802,0.004610298648164104,0.9953897013518359,25.030009246007978,0,0.9998311475872098,-0.3712372819492976,25.011492208562856,-0.00219913711771369,-6.103515625e-05,-6.147169915493578e-05,-178.61785888671875,40.07240293510149,1
9.14559631794691,6.55,0.05000000000000071,5,5.163166371750735,0.0,4.690529098708544e-108,2.640325549026727e-104,2.2412320270676436e-104,95.35181872304844,0.004610299160094155,0.9953897008399059,25.03000019841852,5.99182245303757e-14,0.9998310968667965,-0.37281676391324725,25.011586320425863,-0.00219913711771369,-6.103515625e-05,-6.147169915493578e-05,-178.61785888671875,40.07240293510149,1
9.195596318691969,6.6,0.04999999999999982,5,5.163169265269254,0.0,9.124196118971032e-110,5.136061312857551e-106,4.359730522430766e-106,95.32208274689324,0.004610299673211827,0.9953897003267882,25.029991168364234,0,0.9998310459313374,-0.37439600990376637,25.01168068502352,-0.00219913711771369,-6.103515625e-05,-6.147169915493578e-05,-178.61785888671875,40.07240293510149,1
9.245596319437027,6.65,0.04999999999999982,5,5.163172158787773,0.0,1.774879136517505e-111,9.990892763900965e-108,8.48074265573182e-108,95.29223993448059,0.004610300187517607,0.9953896998124824,25.029982155854157,5.99182245303757e-14,0.9998309947808647,-0.3759750229652014,25.011775291682397,-0.00219913711771369,-6.103515625e-05,-6.147169915493578e-05,-178.61785888671875,40.07240293510149,1
9.295596320182085,6.7,0.04999999999999982,5,5.163175052306292,0.0,3.452582595551161e-113,1.9434775281515173e-109,1.6497161898824066e-109,95.26229052209392,0.004610300703012027,0.995389699296988,25.029973160897896,5.99182245303757e-14,0.9998309434154095,-0.3775538060602674,25.011870129825752,-0.00219913711771369,-6.103515625e-05,-6.147169915493578e-05,-178.61785888671875,40.07240293510149,1
9.345596320927143,6.75,0.04999999999999982,5,5.163177945824811,0.0,6.716155012727817e-115,3.780559582296434e-111,3.20911982473271e-111,95.23223474692561,0.004610301219695616,0.9953896987803044,25.029964183505058,0,0.9998308918350031,-0.37913236225756813,25.011965189033106,-0.00219913711771369,-6.103515625e-05,-6.147169915493578e-05,-178.61785888671875,40.07240293510149,1
9.395596321672201,6.8,0.05000000000000071,5,5.16318083934333,0.0,1.306467339911189e-116,7.354173305829406e-113,6.242576079828647e-113,95.20207284582929,0.004610301737568923,0.9953896982624311,25.02995522368576,0,0.9998308400396754,-0.380710694546471,25.012060458966573,-0.00219913711771369,-6.103515625e-05,-6.147169915493578e-05,-178.61785888671875,40.07240293510149,1
9.44559632241726,6.85,0.04999999999999982,5,5.163183732861849,0.0,2.5414272745510557e-118,1.4305825482905337e-114,1.2143476358780494e-114,95.17180505653445,0.004610302256632509,0.9953896977433675,25.02994628145001,5.99182245303757e-14,0.9998307880294576,-0.38228880602102405,25.012155929463802,-0.00219913711771369,-6.103515625e-05,-6.147169915493578e-05,-178.61785888671875,40.07240293510149,1
9.495596323162317,6.9,0.04999999999999982,5,5.163186626380368,0.0,4.943669062427596e-120,2.7828193587780694e-116,2.362187637101284e-116,95.14143161644697,0.004610302776886948,0.9953896972231131,25.029937356808375,0,0.9998307358043788,-0.38386669969581483,25.012251590431845,-0.00219913711771369,-6.103515625e-05,-6.147169915493578e-05,-178.61785888671875,40.07240293510149,1
9.545596323907375,6.95,0.04999999999999982,5,5.163189519898887,0.0,9.616622011762263e-122,5.413250383950764e-118,4.595022022622962e-118,95.11095276381685,0.004610303298332832,0.9953896967016672,25.029928449771376,5.99182245303757e-14,0.9998306833644683,-0.3854443786837511,25.012347431970966,-0.00219913711771369,-6.103515625e-05,-6.147169915493578e-05,-178.61785888671875,40.07240293510149,1
9.595596324652433,7,0.04999999999999982,5,5.163192413417406,0.0,1.870667718830235e-123,1.0530092016427588e-119,8.938440457151424e-120,95.08036873658504,0.004610303820970767,0.9953896961790293,25.029919560350095,5.99182245303757e-14,0.999830630709755,-0.38702184602067774,25.012443444238556,-0.00219913711771369,-6.103515625e-05,-6.147169915493578e-05,-178.61785888671875,40.07240293510149,1
9.645596325397491,7.05,0.05000000000000071,5,5.163195306935925,0.0,3.638916183937654e-125,2.0483657107729095e-121,1.7387502824642063e-121,95.04967977350617,0.004610304344801362,0.9953896956551986,25.02991068855539,5.99182245303757e-14,0.9998305778402677,-0.38859910483624294,25.01253961760102,-0.00219913711771369,-6.103515625e-05,-6.147169915493578e-05,-178.61785888671875,40.07240293510149,1
9.69559632614255,7.1,0.04999999999999982,5,5.163198200454444,0.0,7.078623654838732e-127,3.984595022946125e-123,3.382315022145264e-123,95.01888611303963,0.0046103048698252465,0.9953896951301747,25.029901834398743,5.99182245303757e-14,0.9998305247560342,-0.3901761581866917,25.012635942470297,-0.00219913711771369,-6.103515625e-05,-6.147169915493578e-05,-178.61785888671875,40.07240293510149,1
9.745596326887608,7.15,0.04999999999999982,5,5.163201093972963,0.0,1.3769774583093238e-128,7.751078402926237e-125,6.579488322589237e-125,94.98798799442909,0.004610305396043059,0.995389694603957,25.029892997891466,5.99182245303757e-14,0.9998304714570824,-0.39175300921375317,25.01273240948194,-0.00219913711771369,-6.103515625e-05,-6.147169915493578e-05,-178.61785888671875,40.07240293510149,1
9.795596327632666,7.2,0.04999999999999982,5,5.163203987491482,0.0,2.678588795019189e-130,1.507791443536111e-126,1.279886332865187e-126,94.95698565663635,0.004610305923455452,0.9953896940765445,25.029884179045382,5.99182245303757e-14,0.999830417943439,-0.39332966098807,25.01282900930579,-0.00219913711771369,-6.103515625e-05,-6.147169915493578e-05,-178.61785888671875,40.07240293510149,1
9.845596328377724,7.25,0.04999999999999982,5,5.163206881010001,0.0,5.2105866890943334e-132,2.9330656362232797e-128,2.48972879301744e-128,94.92587933937925,0.004610306452063078,0.9953896935479369,25.029875377872145,0,0.9998303642151314,-0.39490611666321246,25.0129257328486,-0.00219913711771369,-6.103515625e-05,-6.147169915493578e-05,-178.61785888671875,40.07240293510149,1
9.895596329122782,7.3,0.05000000000000071,5,5.16320977452852,0.0,1.0135834527527255e-133,5.705517883416628e-130,4.843112662212058e-130,94.89466928210649,0.004610306981866615,0.9953896930181334,25.029866594383975,5.99182245303757e-14,0.9998303102721854,-0.3964823793239791,25.01302257104095,-0.00219913711771369,-6.103515625e-05,-6.147169915493578e-05,-178.61785888671875,40.07240293510149,1
9.94559632986784,7.35,0.04999999999999982,5,5.163212668047039,0.0,1.971667464522569e-135,1.1098625136763352e-131,9.421038328130607e-132,94.86335572499561,0.004610307512866731,0.9953896924871333,25.02985782859281,5.99182245303757e-14,0.9998302561146273,-0.3980584521303868,25.013119515061874,-0.00219913711771369,-6.103515625e-05,-6.147169915493578e-05,-178.61785888671875,40.07240293510149,1
9.995596330612898,7.4,0.04999999999999982,5,5.163215561565558,0.0,3.8353840127776603e-137,2.1589585713930205e-133,1.8326266829551287e-133,94.83193890796724,0.004610308045064125,0.9953896919549359,25.029849080511156,5.99182245303757e-14,0.9998302017424824,-0.39963433817597094,25.013216556104737,-0.00219913711771369,-6.103515625e-05,-6.147169915493578e-05,-178.61785888671875,40.07240293510149,1
10.045596331357956,7.45,0.04999999999999982,5,5.163218455084077,0.0,7.460795404417455e-139,4.19972183470147e-135,3.564924487949606e-135,94.80041907164468,0.004610308578459487,0.9953896914215405,25.02984035015129,5.99182245303757e-14,0.9998301471557763,-0.40121004062790805,25.013313685621654,-0.00219913711771369,-6.103515625e-05,-6.147169915493578e-05,-178.61785888671875,40.07240293510149,1
10.095596332103014,7.5,0.04999999999999982,5,5.163221348602596,0.0,1.4513177406038403e-140,8.169544365813354e-137,6.934701391074549e-137,94.76879645640592,0.004610309113053533,0.9953896908869465,25.02983163752606,5.99182245303757e-14,0.9998300923545329,-0.40278556258648807,25.013410895070137,-0.00219913711771369,-6.103515625e-05,-6.147169915493578e-05,-178.61785888671875,40.07240293510149,1
10.145596332848072,7.55,0.05000000000000071,5,5.163224242121115,0.0,2.82319690038202e-142,1.5891922243447302e-138,1.34898304208527e-138,94.73707130330654,0.00461030964884697,0.995389690351153,25.029822942648025,5.99182245303757e-14,0.9998300373387771,-0.4043609072215489,25.013508176175208,-0.00219913711771369,-6.103515625e-05,-6.147169915493578e-05,-178.61785888671875,40.07240293510149,1
10.19559633359313,7.6,0.04999999999999982,5,5.163227135639634,0.0,5.491881792357094e-144,3.091408269506396e-140,2.624137410991587e-140,94.70524385316793,0.0046103101858405195,0.9953896898141594,25.029814265530206,0,0.9998299821085321,-0.4059360776382927,25.013605520659155,-0.00219913711771369,-6.103515625e-05,-6.147169915493578e-05,-178.61785888671875,40.07240293510149,1
10.245596334338188,7.65,0.04999999999999982,5,5.163230029158153,0.0,1.0683224110340031e-145,6.013640504478298e-142,5.104671320947303e-142,94.67331434746484,0.004610310724034911,0.995389689275965,25.02980560618539,5.99182245303757e-14,0.999829926663822,-0.4075110770061961,25.013702920519393,-0.00219913711771369,-6.103515625e-05,-6.147169915493578e-05,-178.61785888671875,40.07240293510149,1
10.295596335083246,7.7,0.04999999999999982,5,5.163232922676672,0.0,2.078186849939884e-147,1.1698216345468273e-143,9.930019390357752e-144,94.64128302744845,0.0046103112634308845,0.9953896887365691,25.029796964626883,0,0.999829871004669,-0.4090859084349931,25.0138003677431,-0.00219913711771369,-6.103515625e-05,-6.147169915493578e-05,-178.61785888671875,40.07240293510149,1
10.345596335828304,7.75,0.04999999999999982,5,5.163235816195191,0.0,4.042590459417405e-149,2.275596101207815e-145,1.9316343375698034e-145,94.60915013500001,0.004610311804029169,0.9953896881959708,25.029788340867583,0,0.9998298151310963,-0.41066057509086695,25.01389785459901,-0.00219913711771369,-6.103515625e-05,-6.147169915493578e-05,-178.61785888671875,40.07240293510149,1
10.395596336573362,7.8,0.05000000000000071,5,5.16323870971371,0.0,7.863867107382285e-151,4.4266129676424046e-147,3.7575206709122533e-147,94.5769159117874,0.00461031234583053,0.9953896876541695,25.029779734921135,5.99182245303757e-14,0.9998297590431252,-0.4122350800823782,25.013995373338673,-0.00219913711771369,-6.103515625e-05,-6.147169915493578e-05,-178.61785888671875,40.07240293510149,1
10.44559633731842,7.85,0.04999999999999982,5,5.163241603232229,0.0,1.5297254413255964e-152,8.610905569229345e-149,7.30934979500836e-149,94.54458060008608,0.004610312888835703,0.9953896871111643,25.029771146800613,5.99182245303757e-14,0.9998297027407783,-0.4138094265744229,25.0140929165006,-0.00219913711771369,-6.103515625e-05,-6.147169915493578e-05,-178.61785888671875,40.07240293510149,1
