timestep,sim_simulation_time,sim_dt_physics,sim_battery_age_factor,sim_battery_time_accel,sim_speed,sim_throttle,sim_front_rpm,sim_rear_rpm,sim_range,sim_battery_degradation,sim_battery_soh,sim_battery_temp,sim_battery_temp_std,sim_battery_soc,sim_battery_curr,sim_battery_cooling_temp,carla_steering,carla_roll,carla_pitch,carla_yaw,carla_env_temp,carla_traffic_light
2.4211322590708733,0.05,0.05,5,5.162787393162821,0.0,0,0,0,500,0.004608298395965701,0.9953917016040343,25,5.99182245303757e-14,1,-2.306056791078894e-06,25.004999999999995,0.1372624635696411,0.0,0.0,89.99995422363281,7.34477970536503,0
2.4711322598159313,0.1,0.05,5,5.162787611113831,0.0,0,0,0,500,0.0046082985905851435,0.9953917014094149,25.000002079076125,5.99182245303757e-14,0.9999999999996861,-2.306056791090131e-06,25.00498807979119,0.014690443873405457,0.0,0.0,89.99995422363281,7.34477970536503,0
2.5211322605609894,0.15,0.05000000000000002,5,5.162787975394155,0.0,0,0,0,500,0.004608298834935871,0.9953917011650641,25.000004149744427,5.99182245303757e-14,0.9999999999993724,-2.3060567911013232e-06,25.004976729340854,0.038495782762765884,0.0,0.0,89.99995422363281,7.34477970536503,0
2.5711322613060474,0.2,0.04999999999999999,5,5.162788481784101,0.0,0,0,0,500,0.00460829912758084,0.9953917008724191,25.00000621219641,0,0.9999999999990573,-2.3060567911124693e-06,25.004965925759905,0.038495782762765884,0.0,0.0,89.99995422363281,7.34477970536503,0
2.6211322620511055,0.25,0.04999999999999999,5,5.162789132828874,0.0,0,0,0,500,0.0046082994694195975,0.9953917005305803,25.00000826688506,5.99182245303757e-14,0.9999999999987436,-2.3060567911235735e-06,25.004955630196264,0.038495782762765884,0.0,0.0,89.99995422363281,7.34477970536503,0
2.6711322627961636,0.3,0.050000000000000044,5,5.162789928550178,0.0,0,0,0,500,0.004608299860463474,0.9953917001395365,25.000010313878022,5.99182245303757e-14,0.9999999999981161,-4.6120905146112905e-06,25.004945830177974,0.038495782762765884,0.0,0.0,89.99995422363281,7.34477970536503,0
2.7211322635412216,0.35,0.04999999999999999,5,5.162790868945411,0.0,0,0,0,500,0.004608300300723403,0.9953916996992765,25.00001235337629,5.99182245303757e-14,0.9999999999974878,-4.612090514632938e-06,25.00493650599634,0.038495782762765884,0.0,0.0,89.99995422363281,7.34477970536503,0
2.7711322642862797,0.4,0.04999999999999999,5,5.162791954015921,0.0,0,0,0,500,0.0046083007902109775,0.995391699209789,25.000014385577515,5.99182245303757e-14,0.9999999997030212,-0.0021681957154731616,25.004927640607207,0.038495782762765884,0.0,0.0,89.99995422363281,7.34477970536503,0
2.8211322650313377,0.45,0.04999999999999999,5,5.162793183766147,0.0,0,0,0,500,0.004608301329178581,0.9953916986708214,25.000016410669787,5.99182245303757e-14,0.9999999994077879,-0.002168195715636778,25.004919221376554,0.038495782762765884,0.0,0.0,89.99995422363281,7.34477970536503,0
2.871132265776396,0.5,0.04999999999999999,5,5.162794558189575,0.06769819122991645,0.00038980023300865224,2.006197372687131,2.003554067562521,500,0.0046083019200077275,0.9953916980799923,25.00001847417866,5.99182245303757e-14,0.9999999577569779,-0.3104780414919333,25.00491124319916,0.038495782762765884,-0.000946044921875,0.008448943495750427,90.00682830810547,7.34477970536503,0
2.921132266521454,0.55,0.050000000000000044,5,5.162796077495899,0.14658772390950786,0.0008422018191252285,4.333106875295287,4.329986215655591,500,0.004608302595646586,0.9953916974043534,25.00002055303105,0,0.9999999066204966,-0.3732234257341246,25.004903714979832,0.038305528461933136,-0.004089356865733862,0.04346049204468727,90.05061340332031,7.34477970536503,0
2.971132267266512,0.6,0.050000000000000044,5,5.162797741269296,0.2159624706760493,0.0012395022023540475,6.376107829524242,6.373438949043245,500,0.004608303327425361,0.9953916966725747,25.00002262497486,5.99182245303757e-14,0.9999998555941461,-0.3700843087202386,25.00489666945424,0.03709551692008972,-0.006256108172237873,0.07359528541564941,90.12142944335938,7.34477970536503,0
3.02113226801157,0.65,0.04999999999999993,5,5.162799549721818,0.43445099376084695,0.0024970792594940995,12.849617118558193,12.836500496528249,500,0.004608304171998623,0.9953916958280014,25.000025798587103,5.99182245303757e-14,0.9999996438031812,-1.5809573000517008,25.0048896250957,0.03541797399520874,-0.0072326622903347015,0.09116935729980469,90.20389556884766,7.34477970536503,0
3.071132268756628,0.7,0.050000000000000044,5,5.162801502854667,1.0236506418454747,0.0059164895705762395,30.49401580877087,30.377894278607997,500,0.004608306301108261,0.9953916936988917,25.000048067644116,0,0.9999987640179667,-7.550655846018232,25.004882214053396,0.03365899994969368,-0.007598873693495989,0.09902407974004745,90.30337524414062,7.34477970536503,0
3.121132269501686,0.75,0.04999999999999993,5,5.162803600657961,1.6955609664477411,0.009815087757263908,50.52220025230508,50.44413962614635,500,0.004608310502701856,0.9953916894972982,25.000093942809087,5.99182245303757e-14,0.9999974643631124,-10.981837224674857,25.004874160413124,0.0314948670566082,-0.007507322821766138,0.10045841336250305,90.40277862548828,7.34477970536503,0
3.171132270246744,0.8,0.050000000000000044,5,5.16280584313869,2.3691121241239186,0.013714070955295796,70.59183332796206,70.4827636016906,500,0.004608316867135206,0.9953916831328647,25.00016987820868,5.99182245303757e-14,0.9999957742170752,-13.84473780393185,25.00486521896636,0.029482971876859665,-0.007263179402798414,0.09858011454343796,90.51171875,7.34477970536503,0
3.221132270991802,0.85,0.050000000000000044,5,5.162808230296585,3.0426461379881675,0.017612954916055964,90.66095559378373,90.52087754916589,500,0.004608325784446538,0.9953916742155534,25.00028373471247,0,0.9999936934595142,-16.719118112787346,25.004855203149987,0.02721317857503891,-0.00692748511210084,0.09532894194126129,90.61973571777344,7.34477970536503,0
3.2711322717368603,0.9,0.04999999999999993,5,5.16281076213156,3.716158126786688,0.02151171138595935,110.72942162073383,110.55833625808378,500,0.004608337721778862,0.9953916622782212,25.000443594506123,5.99182245303757e-14,0.9999912205134138,-19.60509821613259,25.00484398955797,0.025053154677152634,-0.006561271846294403,0.0914698913693428,90.72882080078125,7.34477970536503,0
3.3211322724819183,0.95,0.050000000000000044,5,5.16281343864414,4.389643248354836,0.025410312337695487,130.7970871445015,130.59499568088324,500,0.004608353148066506,0.9953916468519335,25.000657569971793,0,0.9999883537972344,-22.502800549544503,25.004831576364836,0.02286713384091854,-0.0061950720846652985,0.08756984770298004,90.83577728271484,7.34477970536503,0
3.3711322732269764,1,0.04999999999999993,5,5.162816259834294,5.063096644470257,0.02930872965099996,150.8638074223036,150.63071129227194,500,0.004608372539461934,0.9953916274605381,25.00093389762685,5.99182245303757e-14,0.9999850917054933,-25.412350932255865,25.00481863759893,0.0207720547914505,-0.005828862078487873,0.08392935991287231,90.93953704833984,7.34477970536503,0
3.4211322739720345,1.05,0.050000000000000044,5,5.162819225699028,5.736513433323262,0.0332069350690673,170.92943700852365,170.665337865213,483.9023617382875,0.004608396380296458,0.9953916036197036,25.001280954538743,5.99182245303757e-14,0.9999814326086527,-28.333877482551156,25.004805192700758,0.018739262595772743,-0.005493168253451586,0.08073966205120087,91.03902435302734,7.34477970536503,0
3.4711322747170925,1.1,0.050000000000000044,5,5.162822336239957,6.409888784455637,0.03710490063234914,190.99383198764548,190.69873170040816,401.70613318286684,0.00460842515572063,0.9953915748442794,25.0017071302903,5.99182245303757e-14,0.9999773748843367,-31.267511199105233,25.004791179208496,0.01683761738240719,-0.0051574744284152985,0.07788464426994324,91.13350677490234,7.34477970536503,0
3.5211322754621506,1.15,0.050000000000000044,5,5.162825591457346,7.08321783155169,0.04100259817372742,211.0568473757061,210.73074803176723,339.5738436266818,0.004608459360591251,0.9953915406394087,25.002220980862376,5.99182245303757e-14,0.9999729168674086,-34.21338582683772,25.004776541456636,0.015019324608147144,-0.004730226472020149,0.07494083046913147,91.2217025756836,7.34477970536503,0
3.5711322762072086,1.2,0.050000000000000044,5,5.162828991351049,7.7564957250833215,0.044899999623260994,231.11833868894908,230.76124259263707,291.4667128477933,0.004608499494306796,0.9953915005056932,25.002831138641966,0,0.9999680568831946,-37.171638167913045,25.004761227342613,0.013400960713624954,-0.004241943359375,0.06371200084686279,91.30426788330078,7.34477970536503,0
3.6211322769522667,1.25,0.04999999999999982,5,5.162832535927469,8.429717606240299,0.048797076857275384,251.1781611670287,250.79007084020694,253.4597422697888,0.004608546063642273,0.9953914539363578,25.003546361137126,0,0.9999627932355378,-40.1424080573581,25.00474518606086,0.01183073315769434,-0.0036926257889717817,0.05364430323243141,91.37889862060547,7.34477970536503,0
3.6711322776973248,1.3,0.050000000000000044,5,5.1628362252926925,9.10287861646574,0.1526938017535609,271.23617005713606,270.817088239196,222.91144864466034,0.004608599581986637,0.9953914004180133,25.004375516721836,0,0.9999571241911088,-43.12583849881394,25.00472836692404,0.010492086410522461,-0.003479005303233862,0.04862411320209503,91.4466552734375,7.34477970536503,0
3.721132278442383,1.35,0.050000000000000044,5,5.162840059250679,9.775973854439872,0.1565901459423643,291.2922193322536,290.8421489820884,197.99006724424234,0.0046086605740027035,0.9953913394259973,25.00532766734085,0,0.9999510477166533,-46.122075575025804,25.004710717923103,0.009305152110755444,-0.0032653817906975746,0.04721026495099068,91.50749969482422,7.34477970536503,0
3.771132279187441,1.4,0.050000000000000044,5,5.1628440378544855,10.448998515251423,0.16048608161200956,311.3461658380079,310.86511012957993,177.39627388185966,0.004608729561070833,0.9953912704389292,25.006411812162355,0,0.9999445625931891,-49.13126915486814,25.004692186873967,-0.02126305177807808,0.005859740544110537,0.04867875576019287,91.47984313964844,7.34477970536503,0
3.821132279932499,1.45,0.050000000000000044,5,5.162848161134207,11.121947815128912,0.16438158107319017,331.3978670499072,330.8858293712809,160.18329699331142,0.004608807069171664,0.9953911929308283,25.00763702534823,5.99182245303757e-14,0.9999376669286684,-52.15357269000865,25.004672719563757,-0.011962153017520905,0.00870437826961279,0.05124007537961006,91.40567016601562,7.34477970536503,0
3.871132280677557,1.5,0.04999999999999982,5,5.162852429083884,11.794816860593754,0.1682766160015357,351.44717717452744,350.9041611329257,145.6500577344906,0.004608893643602793,0.9953911063563972,25.009012710711545,0,0.9999303588297642,-55.18914273079824,25.00465225795267,-0.01005978137254715,0.008547130040824413,0.05722332000732422,91.31771850585938,7.34477970536503,0
3.921132281422615,1.55,0.050000000000000044,5,5.162856841715085,12.467600822234921,0.1721711584435407,371.4939523274308,370.919961746293,133.26840149248855,0.004608989830147277,0.9953910101698528,25.010548274042208,5.99182245303757e-14,0.9999226364997917,-58.238139817887124,25.004630741582332,-0.00815279595553875,0.007491158787161112,0.05910162255167961,91.25119018554688,7.34477970536503,0
3.971132282167673,1.6,0.050000000000000044,5,5.162861399015498,13.140294842142113,0.17606518028072293,391.53804777497425,390.93308669527573,122.63408432333873,0.0046090961854972235,0.9953909038145028,25.012253303361433,0,0.9999144980619263,-61.30072819118701,25.004608105944783,-0.0069957817904651165,0.006587115582078695,0.060918454080820084,91.1883316040039,7.34477970536503,0
4.021132282912731,1.65,0.050000000000000044,5,5.162866100995054,13.812894066438494,0.17995865341794562,411.57931890367814,410.943391583752,113.43358236618101,0.004609213274017748,0.9953907867259822,25.014137511679166,0,0.9999059416800029,-64.37707606034917,25.004584282330427,-0.005762325134128332,0.0056870426051318645,0.06267381459474564,91.12915802001953,7.34477970536503,0
4.071132283657789,1.7,0.050000000000000044,5,5.162870947647932,14.485393696739877,0.1838515500812987,431.6176227535415,430.9507336665321,105.42058466472449,0.004609341661625849,0.9953906583383741,25.016210630200874,5.99182245303757e-14,0.9998969654566815,-67.46735597496188,25.00455919823247,-0.0047011421993374825,0.004889121279120445,0.06485947221517563,91.09186553955078,7.34477970536503,0
4.121132284402847,1.75,0.04999999999999982,5,5.162875938982907,15.157788891017406,0.18774384224422275,451.6528150640708,450.95496889995167,98.39950421275313,0.004609481927848942,0.9953905180721511,25.018482616271115,5.99182245303757e-14,0.999887567494239,-70.57174450968685,25.00453277534018,-0.004129404667764902,0.0042656357400119305,0.06591815501451492,91.05752563476562,7.34477970536503,0
4.171132285147905,1.8,0.050000000000000044,5,5.1628810749905725,15.830074809765994,0.19163550189476414,471.68475164994874,470.9559533154157,92.21338153418853,0.004609634660518291,0.9953903653394817,25.020963560513678,5.99182245303757e-14,0.9998777458318863,-73.69042261852985,25.004504929769553,-0.003493256401270628,0.0038064352702349424,0.06686072051525116,91.01864624023438,7.34477970536503,0
4.221132285892963,1.85,0.050000000000000044,5,5.162886355675826,16.502246631055975,0.1955265011227038,491.71328884952067,490.95354346719375,86.73513123565402,0.004609800454436626,0.9953901995455634,25.023663662447973,5.99182245303757e-14,0.9998674985373411,-76.82357585282432,25.00447557178876,-0.0026734701823443174,0.0032600299455225468,0.06680607795715332,90.98906707763672,7.34477970536503,0
4.2711322866380215,1.9,0.050000000000000044,5,5.1628917810352455,17.174299546027584,0.19941681209347717,511.73828339055405,510.94759629837904,81.86054369678041,0.004609979935074907,0.995390020064925,25.026593640070246,0,0.9998568228968305,-79.98971026342889,25.004444605480103,-0.0021796838846057653,0.0027997088618576527,0.06483898311853409,90.96637725830078,7.34477970536503,0
4.3211322873830795,1.95,0.050000000000000044,5,5.162897351073101,17.846228699649068,0.20330640670523858,531.7595906250016,530.9379673783961,77.50278029842559,0.004610173831720784,0.9953898261682792,25.029765960211705,0,0.999845713631589,-83.18494373707985,25.004411926874468,-0.001790340174920857,0.0024032872170209885,0.05891037732362747,90.94620513916016,7.34477970536503,0
4.371132288128138,2,0.04999999999999982,5,5.162903065791834,18.518029301215652,0.2071952572285081,551.7770678215292,550.9245141904258,73.59139230956059,0.004610382791306636,0.9953896172086933,25.033191654140694,5.99182245303757e-14,0.9998341682340515,-86.39555737244096,25.004377426024973,-0.0015173139981925488,0.0020921097602695227,0.04893830418586731,90.92922973632812,7.34477970536503,0
4.421132288873196,2.05,0.050000000000000266,5,5.162908925215918,19.189696542818147,0.21108333583421007,571.7905717361377,570.9070937057872,70.06768420935884,0.004610607458455074,0.9953893925415449,25.03688172241715,0,0.9998221845908241,-89.62176353111916,25.004340984794,-0.014281746000051498,0.006128556560724974,0.03607022762298584,90.873046875,7.34477970536503,0
4.471132289618254,2.1,0.04999999999999982,5,5.162914929675806,19.861225544596625,0.21497061427676273,591.799956980895,590.8855607551933,66.88225747083682,0.0046108484979674805,0.9953891515020326,25.040847494422508,0,0.9998097604674693,-92.86377984705733,25.004302475001452,-0.00943045224994421,0.007779567502439022,0.02325679361820221,90.79362487792969,7.34477970536503,0
4.521132290363312,2.15,0.04999999999999982,5,5.162921078476876,20.532611246047367,0.21885706326488708,611.8050727852385,610.8597647950545,63.99313727622504,0.00461110660382845,0.9953888933961715,25.045100790327865,5.99182245303757e-14,0.999796892716873,-96.1218289231902,25.004261758339624,-0.007688244804739952,0.007618130184710026,0.011385925114154816,90.71843719482422,7.34477970536503,0
4.57113229110837,2.2,0.050000000000000266,5,5.162927371935955,21.203849497893117,0.22274265878211374,631.8057955301658,630.8295823913993,61.365213845741756,0.004611382378326413,0.9953886176216736,25.04965181476149,5.99182245303757e-14,0.9997835812482809,-99.39614370988623,25.00421870050343,-0.006284578703343868,0.00699333380907774,0.0018919622525572777,90.65269470214844,7.34477970536503,0
4.621132291853428,2.25,0.04999999999999982,5,5.16293381003805,21.87493518609021,0.22662737122722712,651.8019728497312,650.7948614077454,58.96788002382382,0.0046116765465548685,0.9953883234534451,25.054512876567173,0,0.9997698228591492,-102.68695886630225,25.00417314312307,-0.005071181338280439,0.006196677219122648,-0.005095320753753185,90.59779357910156,7.34477970536503,0
4.671132292598486,2.3,0.050000000000000266,5,5.162940392820948,22.545863564176337,0.23051117312682293,671.7934633306824,670.7554606433946,56.77503543549592,0.004611989802105735,0.9953880101978942,25.059695712982375,5.99182245303757e-14,0.9997556153461699,-105.99451729662397,25.004124924438315,-0.0041672904044389725,0.005453726276755333,-0.008544566109776497,90.55233764648438,7.34477970536503,0
4.721132293343544,2.35,0.04999999999999982,5,5.162947120270407,23.21662977425619,0.2343940363624399,691.7801222393913,690.7112355824156,54.764141056506304,0.004612322865766605,0.9953876771342334,25.065212504224576,5.99182245303757e-14,0.9997409562806548,-109.31906812009406,25.00407386959438,-0.003323877463117242,0.004721696022897959,-0.009275396354496479,90.515380859375,7.34477970536503,0
4.771132294088602,2.4,0.050000000000000266,5,5.162953992450042,23.88722906151564,0.23827593341231654,711.7618079136762,710.6620447755914,52.91569117170991,0.004612676457970905,0.9953873235420291,25.07107539386476,0,0.9997258433810641,-112.66086796732633,25.004019795837735,-0.002566211624071002,0.004038607701659203,-0.007110226433724165,90.48579406738281,7.34477970536503,0
4.82113229483366,2.45,0.04999999999999982,5,5.16296101170374,24.557656590584894,0.24215683628837267,731.7383762910156,730.6077443770921,51.21269530718211,0.004613051322680419,0.9953869486773196,25.077296886547572,5.99182245303757e-14,0.9997102740888225,-116.02018036883946,25.003962508389918,-0.0022192050237208605,0.0034775063395500183,-0.0035721887834370136,90.46173858642578,7.34477970536503,0
4.871132295578718,2.5,0.04999999999999982,5,5.162968173211091,25.21300463071089,0.24586422232527091,751.1947551022994,749.3819346007136,49.694750603583536,0.004613430477632124,0.9953865695223679,25.083583215890656,0,0.9996946212832646,-112.80645099323708,25.003901744427026,-0.0018583227647468448,0.003022112650796771,0.0008674339624121785,90.44163513183594,7.34477970536503,0
4.921132296323776,2.55,0.050000000000000266,5,5.162975479390664,25.835808815159574,0.2493852280925721,769.6835729624388,767.2043731113198,48.401747256674064,0.004613790164794074,0.995386209835206,25.089536581507275,0,0.9996793838499293,-109.56996071490836,25.00383740365828,-0.001497906050644815,0.0025856229476630688,0.004487433936446905,90.42505645751953,7.34477970536503,0
4.971132297068834,2.6,0.04999999999999982,5,5.1629829308027855,26.426354354436484,0.2527198238956326,787.2121302127932,784.0693174010981,47.30425276974728,0.004614129003433728,0.9953858709965663,25.095133479573974,5.99182245303757e-14,0.9996646040832055,-106.19510558166925,25.003769203197805,-0.001083534792996943,0.0021544734481722116,0.0070555848069489,90.41182708740234,7.34477970536503,0
5.021132297813892,2.65,0.050000000000000266,5,5.162990527212587,26.996407351485534,0.25595096991885274,803.9644197710026,800.5854144414227,46.341910333138976,0.0046144589870660705,0.995385541012934,25.10058153494532,5.99182245303757e-14,0.9996500183055667,-103.71020185214022,25.003696886385455,-0.006189654115587473,0.003565903753042221,0.007520037703216076,90.38410949707031,7.34477970536503,0
5.07113229855895,2.7,0.04999999999999982,5,5.162998267375812,27.525456579023036,0.2588704825882659,818.6986009151778,815.8103926080095,45.566357279520815,0.004614754862606905,0.9953852451373931,25.105443309143254,0,0.999636239910353,-94.39210130557768,25.003620206114647,-0.0041536190547049046,0.004024391062557697,0.00584664149209857,90.34809875488281,7.34477970536503,0
5.1211322993040085,2.75,0.04999999999999982,5,5.163006152230172,28.012683860138193,0.2615869259690673,832.4908222206304,829.9142170561327,44.963239214843504,0.004615013413362299,0.9953849865866377,25.10967687663782,5.99182245303757e-14,0.9996233725720495,-88.05522558207583,25.00353893869851,-0.0032320376485586166,0.003726227441802621,0.0020763773936778307,90.31513214111328,7.34477970536503,0
5.1711323000490665,2.8,0.050000000000000266,5,5.163014181753913,28.43392593557317,0.263865937454531,843.9323164840154,841.8441997277679,44.58957947397396,0.004615212091639177,0.9953847879083608,25.112887885131386,5.99182245303757e-14,0.9996121473329462,-76.66982857887183,25.003452780687837,-0.00275812903419137,0.0033400149550288916,-0.0019875848665833473,90.28657531738281,7.34477970536503,0
5.221132300794125,2.85,0.04999999999999982,5,5.163022355944329,28.79168783095065,0.2657851069148176,853.560403779128,851.8956593990125,44.420369324787444,0.004615359069006559,0.9953846409309934,25.11522752933803,0,0.9996025419233243,-65.3281336709636,25.003361442953008,-0.0022902560885995626,0.002938297111541033,-0.00586030213162303,90.26244354248047,7.34477970536503,0
5.271132301539183,2.9,0.050000000000000266,5,5.163030674811436,29.06307088353215,0.2671540443614421,860.3028052987449,859.1592952789198,44.51982594768981,0.004615445161842684,0.9953845548381574,25.116537626114848,0,0.9995953019730317,-49.04364419735627,25.00326463156216,-0.0017587735783308744,0.0025263444986194372,-0.008148415014147758,90.2426528930664,7.34477970536503,0
5.321132302284241,2.95,0.04999999999999982,5,5.163039138354436,29.268589677024963,0.2681916314186443,865.4455744757166,864.6405019110115,44.81366993861438,0.004615495755590346,0.9953845042444096,25.11726580093506,0,0.9995898306986879,-37.09576239194207,25.00316203176436,-0.0014335326850414276,0.0021473916713148355,-0.009125132113695145,90.22671508789062,7.34477970536503,0
5.371132303029299,3,0.04999999999999982,5,5.163047746575363,29.40142526769831,0.26879422985015056,868.3563933536788,867.8807736360961,45.31645470617425,0.004615519103972544,0.9953844808960275,25.117546144518542,5.99182245303757e-14,0.9995862822578793,-23.94556045330165,25.0030533202451,-0.0011074531357735395,0.0018098599975928664,-0.008148415014147758,90.21399688720703,7.34477970536503,0
5.421132303774357,3.05,0.050000000000000266,5,5.16305649946935,29.494890754117773,0.2692462505265313,870.5942092030867,870.2705978364668,45.928480284730654,0.004615531720472635,0.9953844682795273,25.117665839222127,5.99182245303757e-14,0.999583750502784,-17.181913689711376,25.00293816031757,-0.001010760897770524,0.001555307419039309,-0.0061949812807142735,90.20353698730469,7.34477970536503,0
5.471132304519415,3.1,0.04999999999999982,5,5.163065397052101,29.549191174650385,0.2694714642886712,871.671860982328,871.4892828612943,46.65052019189105,0.004615537544910474,0.9953844624550895,25.117680547095745,5.99182245303757e-14,0.9995822199577816,-10.343994733089625,25.00281620525061,-0.0008006644784472883,0.0013304859166964889,-0.0031760376878082752,90.19479370117188,7.34477970536503,0
5.521132305264473,3.15,0.050000000000000266,5,5.163074439373313,29.599126415805348,0.2697505211079011,873.1007142945771,872.9291542501767,47.38119613459849,0.0046155421621067,0.9953844578378933,25.11768674400878,5.99182245303757e-14,0.9995807968326089,-9.784582240697615,25.002687094286614,-0.0005190677475184202,0.0010758830467239022,-0.00033467926550656557,90.18807983398438,7.34477970536503,0
5.571132306009531,3.2,0.04999999999999982,5,5.163083626295187,29.641101001572583,0.2699733632727517,874.2313767558289,874.0867368878933,48.13194190577727,0.004615545977683139,0.9953844540223169,25.11767933537726,5.99182245303757e-14,0.9995795739680816,-8.39374699491406,25.00255045062653,-0.0006220098002813756,0.0009402577998116612,0.002281283028423786,90.18231201171875,7.34477970536503,0
5.621132306754589,3.25,0.04999999999999982,5,5.163092957896092,29.70117400060096,0.2703597159600631,876.2554238827872,876.0458757284772,48.82338287643649,0.0046155517281765155,0.9953844482718235,25.117707124229014,5.99182245303757e-14,0.9995778848591048,-11.708519679046775,25.002405906334843,-0.0023630778305232525,0.001423106761649251,0.0030940754804760218,90.17121124267578,7.34477970536503,0
5.671132307499647,3.3,0.050000000000000266,5,5.163102434169429,29.764820527216163,0.2707317451875243,878.1753123340236,877.9542224372005,49.499284067971,0.00461555839258404,0.995384441607416,25.117743436637056,5.99182245303757e-14,0.9995761001516044,-12.284959839221633,25.002253059442694,-0.0016384831396862864,0.0015533084515482187,0.00015709434228483588,90.15729522705078,7.34477970536503,0
5.721132308244705,3.35,0.04999999999999982,5,5.163112055129552,29.84653939031706,0.2712417855424756,880.8374526467433,880.5479803972223,50.11347514026518,0.004615568057351715,0.9953844319426483,25.117829534788484,5.99182245303757e-14,0.9995738401387401,-15.604626960966204,25.00209150754415,-0.0010604565031826496,0.0013428651727735996,-0.006959962192922831,90.14531707763672,7.34477970536503,0
5.771132308989763,3.4,0.050000000000000266,5,5.163121820754636,29.91106508168705,0.27157133509277365,882.494488821591,882.2711492187699,50.777374950052184,0.004615575437783358,0.9953844245622167,25.117868981014453,5.99182245303757e-14,0.9995720231752087,-12.403275620151534,25.001920832408985,-0.0011315717129036784,0.0011991877108812332,-0.015074227005243301,90.13494110107422,7.34477970536503,0
5.821132309734821,3.45,0.04999999999999982,5,5.163131731055579,29.933647974032137,0.27160471036549594,882.5835360857878,882.5047412251226,51.57120627779299,0.0046155784162258155,0.9953844215837742,25.11783780801869,0,0.999571281778003,-4.8704359415844145,25.001740614388893,-0.0009114888962358236,0.001048170612193644,-0.02319532074034214,90.12601470947266,7.34477970536503,0
5.871132310479879,3.5,0.04999999999999982,5,5.163141786032427,29.697489836050966,0.2696309249945832,875.2836404724985,870.215594596875,52.444018917770286,0.004615579776527727,0.9953844202234723,25.117792375632177,5.99182245303757e-14,0.9995712049978304,-0.3848578594764736,25.001550416160228,-0.0004775827983394265,0.0008126458269543946,-0.028966831043362617,90.11946105957031,7.34477970536503,0
5.921132311224937,3.55,0.050000000000000266,5,5.163151985685203,29.271392041980707,0.2666865016371126,862.7290108071962,853.1317566286158,53.30968097400258,0.004615580674956616,0.9953844193250434,25.1177467590515,0,0.9995711532860104,-0.3782601014515821,25.00134979285525,-0.0006220098002813756,0.0006919269217178226,-0.032593660056591034,90.11422729492188,7.34477970536503,0
5.9711323119699955,3.6,0.04999999999999982,5,5.163162330013905,28.644287719110928,0.2624466465670384,844.249904506521,828.832390723455,54.15941256278332,0.004615581626394008,0.995384418373606,25.11770121312992,0,0.9995711029795469,-0.3687314681896735,25.00113829170442,0.0002485241857357323,0.00036062768776901066,-0.03363185003399849,90.11199188232422,7.34477970536503,0
6.021132312715054,3.65,0.050000000000000266,5,5.163172819018533,28.014723004347676,0.2588829014315305,825.694337663965,810.6753596358005,54.99041709898524,0.004615582630543599,0.9953844173694564,25.11765573840421,5.99182245303757e-14,0.9995710538077816,-0.3605561391673222,25.00091545048707,-0.000870533986017108,0.0004532688471954316,-0.03305128216743469,90.10903930664062,7.34477970536503,0
6.071132313460112,3.7,0.04999999999999982,5,5.1631834526990845,27.386198308305158,0.1673573797032621,807.1719682126959,0.8374411698368635,55.80398194414646,0.004615583686578981,0.995384416313421,25.117610318016375,5.99182245303757e-14,0.9995710131361132,-0.287139685036537,25.000680799580778,0.0002485241857357323,0.00023441090888809413,-0.029444944113492966,90.10746002197266,7.34477970536503,0
6.12113231420517,3.75,0.04999999999999982,5,5.163194231055567,26.817583634289658,0.16612999358147879,790.4128031458806,2.360339873898584,56.60049962887354,0.004615584788104435,0.9953844152118956,25.11756496729913,5.99182245303757e-14,0.9995709742910973,-0.28341593207142174,25.000433860850933,0.0,0.0001144515335909091,-0.023652944713830948,90.10714721679688,7.34477970536503,0
6.171132314950228,3.8,0.050000000000000266,5,5.163205154088475,26.2417133578129,0.23331079648938513,773.4437769370376,619.7143357016879,57.38007464893963,0.004615585943058214,0.9953844140569418,25.11751968895578,5.99182245303757e-14,0.9995709359236225,-0.3063477510178439,25.000174150949533,0.0,6.762988050468266e-05,-0.015320113860070705,90.1070556640625,7.34477970536503,0
6.221132315695286,3.85,0.04999999999999982,5,5.163216221796837,25.90876421648468,0.24782161137855058,763.6186624028796,757.6805056047954,58.144262835434056,0.004615587155381175,0.9953844128446189,25.117474499634227,5.99182245303757e-14,0.999570890189351,-0.33494517190125855,24.99990117950216,-0.0006155604496598244,0.00023364131629932672,-0.006345245521515608,90.10511016845703,7.34477970536503,0
6.271132316440344,3.9,0.050000000000000266,5,5.1632274341811275,25.727344327979747,0.24709683299189142,758.2689821721234,755.1697602979302,58.90104719393602,0.004615588424727316,0.9953844115752727,25.117429382455725,0,0.9995708447146627,-0.3332062751762031,24.999614446844248,0.14880619943141937,-0.0328063890337944,0.001912452862598002,90.39696502685547,7.34477970536503,0
6.321132317185402,3.95,0.04999999999999982,5,5.163238791241321,25.742551192183043,0.2475608768686847,759.1128927618614,758.713222246766,59.595472600901246,0.004615590060112702,0.9953844099398873,25.11738972607276,5.99182245303757e-14,0.9995703893659155,-3.4513793031171995,24.999313460204007,0.10288206487894058,-0.0587158165872097,0.009814981371164322,91.03053283691406,7.34477970536503,0
6.37113231793046,4,0.04999999999999982,5,5.163250292977418,25.80228178206939,0.24797600832823527,761.7489802375464,760.4723397759573,60.14477693688404,0.004615594926831268,0.9953844050731687,25.1173989453535,5.99182245303757e-14,0.9995689447475584,-10.36270737464355,24.998997711747222,0.08858323097229004,-0.0657958984375,0.018407359719276428,91.72467803955078,7.34477970536503,0
6.421132318675518,4.05,0.04999999999999982,5,5.163261939389525,25.9254127747213,0.24883242130288555,765.6571006751872,765.2489662195794,60.48556822390093,0.004615609936613451,0.9953843900633865,25.11756895458302,5.99182245303757e-14,0.999566064236506,-20.612073965263484,24.998666692152256,0.07518330216407776,-0.0639343187212944,0.025408301502466202,92.38420104980469,7.34477970536503,0
6.471132319420576,4.1,0.05000000000000071,5,5.163273730477573,26.11372888924268,0.2500425515599046,772.0328761689422,771.3583069124355,60.60629161318334,0.0046156432267553575,0.9953843567732447,25.118033676239634,0,0.9995616239562964,-31.409799570435585,24.998319889759102,0.06318983435630798,-0.059387192130088806,0.028966831043362617,92.97952270507812,7.34477970536503,0
6.521132320165634,4.15,0.04999999999999982,5,5.163285666241656,26.392882087088164,0.2518332535510084,781.5045174930843,780.3708938392618,60.4181944791951,0.004615716415787895,0.9953842835842122,25.119164899124826,5.99182245303757e-14,0.9995548785437849,-47.63270511977194,24.997956789640057,0.05266762524843216,-0.053070068359375,0.027409547939896584,93.4967041015625,7.34477970536503,0
6.571132320910692,4.2,0.04999999999999982,5,5.163297747886959,26.731147628155213,0.25390058127337767,792.3384289874759,790.8514097197917,60.03303714081926,0.004615828339081021,0.995384171660919,25.120931964937597,0,0.9995464995975849,-58.83879731743903,24.997576874202423,0.04383610934019089,-0.0470275841653347,0.021897586062550545,93.9391098022461,7.34477970536503,0
6.62113232165575,4.25,0.04999999999999982,5,5.163309973007659,27.10690685344381,0.2561322951599724,803.9458345976594,802.2312804915068,59.53406170089223,0.0046159713286743785,0.9953840286713256,25.12321214649063,0,0.9995370062058624,-65.7329533828988,24.99717947649134,0.03645792603492737,-0.04107666015625,0.013851623050868511,94.30998992919922,7.34477970536503,0
6.671132322400808,4.3,0.04999999999999982,5,5.163322342813743,27.4491635393745,0.2580222405529682,813.5379594347482,812.0466954006524,59.157541574233974,0.004616094078872544,0.9953839059211275,25.125128949782834,0,0.9995282860818996,-59.3693012580565,24.996764367112576,0.03049314394593239,-0.03851318359375,0.003592679277062416,94.62016296386719,7.34477970536503,0
6.721132323145866,4.35,0.05000000000000071,5,5.1633348572820434,27.739441809078624,0.259582069965016,821.3921311230757,820.1945313428365,58.96003301175314,0.004616184291447656,0.9953838157085524,25.126495978246,5.99182245303757e-14,0.9995208859308822,-50.28773265976978,24.996330876831564,0.025607645511627197,-0.0394592247903347,-0.009705698117613792,94.87737274169922,7.34477970536503,0
6.7711323238909245,4.4,0.04999999999999982,5,5.163347516426149,27.944830203496203,0.2605821029164612,826.2867766396386,825.5238437684221,59.03782218302595,0.004616232142455993,0.995383767857544,25.127149217929343,5.99182245303757e-14,0.9995156796757839,-35.1861268158812,24.995878488856363,0.02172951027750969,-0.0399475060403347,-0.01831173524260521,95.09242248535156,7.34477970536503,0
6.8211323246359825,4.45,0.04999999999999982,5,5.163360320245729,28.083184575335633,0.2612371090562564,829.4909767356565,829.0157489545647,59.32457661575015,0.0046162562237101095,0.9953837437762899,25.127420870285164,5.99182245303757e-14,0.9995121634104889,-23.756292352914667,24.995406675640993,0.01857032999396324,-0.0372009240090847,-0.022368868812918663,95.27268981933594,7.34477970536503,0
6.871132325381041,4.5,0.04999999999999982,5,5.163373268741166,28.142823342946837,0.26141333446901227,830.23196698023,830.0460349859383,59.852160191015734,0.004616264300518941,0.995383735699481,25.127437758774533,5.99182245303757e-14,0.999510587560217,-10.459012190409343,24.994914913965545,0.016086101531982422,-0.0400695763528347,-0.026426000520586967,95.4262924194336,7.34477970536503,0
6.921132326126099,4.55,0.04999999999999982,5,5.163386361912459,28.15763669113229,0.2614049892887095,830.110749532011,830.061841449377,60.51538073441804,0.00461626754089061,0.9953837324591094,25.127396020946037,0,0.9995100883628355,-3.1799850969600034,24.99440268008675,0.11877468228340149,-0.06445310264825821,-0.0315827913582325,95.75691986083984,7.34477970536503,0
6.971132326871157,4.6,0.05000000000000071,5,5.163399599759691,28.061877189389243,0.2606125092468745,827.0737461202126,825.2072736317112,61.23293315987884,0.0046162696334611,0.9953837303665389,25.12734765820727,5.99182245303757e-14,0.9995100233987732,-0.3643854527382621,24.993869451908097,0.21312667429447174,-0.11395261436700821,-0.0313437357544899,96.60298156738281,7.34477970536503,0
7.021132327616215,4.65,0.04999999999999982,5,5.163412982282839,27.988089699907217,0.2602429849432547,824.8984759130467,823.5130075545075,61.95013002243269,0.004616271458785964,0.995383728541214,25.127299254963816,5.99182245303757e-14,0.9995099738513887,-0.3635363538420828,24.993314707183515,0.17158038914203644,-0.1401977390050888,-0.02572249062359333,97.77962493896484,7.34477970536503,0
7.071132328361273,4.7,0.04999999999999982,5,5.1634265094819085,27.922789620281815,0.2598874763379668,822.9736919309202,821.7570180935111,62.6653787680028,0.004616273337961735,0.9953837266620382,25.127250925854923,5.99182245303757e-14,0.9995099244188341,-0.3627294963561219,24.99273792798158,0.2847345471382141,-0.17776484787464142,-0.01440486777573824,99.25672912597656,7.34477970536503,0
7.121132329106331,4.75,0.04999999999999982,5,5.163440181356918,27.93522730705209,0.2601230661106251,823.6923060459908,823.3383654611325,63.326605948942394,0.004616275563296007,0.995383724436704,25.12720771025613,5.99182245303757e-14,0.9995094828361886,-3.1216324771889217,24.99213859750205,0.3600233495235443,-0.2344665378332138,-0.0027184151113033295,101.28235626220703,7.34477970536503,0
7.171132329851389,4.8,0.05000000000000071,5,5.163453997907847,27.996040501377685,0.26055854721507876,826.5303933405935,825.129129930263,63.82920908446627,0.004616281770497507,0.9953837182295024,25.127226973619827,5.99182245303757e-14,0.9995078727485296,-11.37090199574591,24.99151620257271,0.3013911247253418,-0.2618407905101776,0.005867131985723972,103.59512329101562,7.34477970536503,0
7.221132330596447,4.85,0.04999999999999982,5,5.163467961061037,28.129561230871886,0.26150819013817894,830.8908726547274,830.4055567525651,64.0918068895896,0.004616302473747745,0.9953836975262522,25.127479395261332,0,0.9995044678555667,-24.190204759315094,24.990870231709323,0.27178624272346497,-0.2677001655101776,0.01310713216662407,105.88803100585938,7.34477970536503,0
7.271132331341505,4.9,0.04999999999999982,5,5.163482066963868,28.315829877576093,0.2626847050306602,837.069021794869,836.3605789297901,64.17593866452039,0.00461634152137137,0.9953836584786286,25.12802252974143,5.99182245303757e-14,0.9994996846508036,-33.199854158746106,24.990199852553417,0.38484179973602295,-0.2981871962547302,0.018660075962543488,108.34009552001953,7.34477970536503,0
7.321132332086563,4.95,0.04999999999999982,5,5.163496317542938,28.57712345708818,0.2643465420291674,845.8349749346827,844.7426470614948,64.0057304422957,0.004616417525851499,0.9953835824741485,25.1291845297323,5.99182245303757e-14,0.9994928436369463,-47.13111343366271,24.989505211148412,0.4628642499446869,-0.3416747450828552,0.017123283818364143,111.23744201660156,7.34477970536503,0
7.371132332831621,5,0.04999999999999982,5,5.163510712798248,28.88182505126413,0.26619270843404724,855.4773491067509,854.1263640763619,63.691742183334284,0.004616523960643213,0.9953834760393568,25.13084330631034,5.99182245303757e-14,0.9994847137892703,-55.76050608967842,24.98878548657018,0.49112722277641296,-0.3842773735523224,0.008182566612958908,114.56974792480469,7.34477970536503,0
7.421132333576679,5.05,0.05000000000000071,5,5.163525252738784,29.197338125513053,0.2680306784894596,864.9736111023119,863.5458980784024,63.34815864865001,0.004616641384958319,0.9953833586150417,25.132673870890244,5.99182245303757e-14,0.9994761816560893,-58.34156116696379,24.988040185508623,0.42435815930366516,-0.395111083984375,-0.00036883019492961466,117.9833984375,7.34477970536503,0
7.471132334321737,5.1,0.04999999999999982,5,5.163539937346303,29.464468860998718,0.2694557230974398,872.1389392885608,870.9973034105378,63.1726477316504,0.004616728301635755,0.9953832716983643,25.133972657875574,5.99182245303757e-14,0.9994689554524704,-49.13781290255484,24.98726881842748,0.48726075887680054,-0.4122924208641052,-0.00887924525886774,121.47989654541016,7.34477970536503,0
7.521132335066795,5.15,0.04999999999999982,5,5.1635547666302255,29.664098237714718,0.2704514462436498,877.0571725919854,876.270136748859,63.219954595016794,0.004616779508335003,0.9953832204916649,25.134672816435852,0,0.9994635672721974,-36.514681973261645,24.98647090611206,0.5086128115653992,-0.4313049018383026,-0.017212076112627983,125.12698364257812,7.34477970536503,0
7.571132335811853,5.2,0.04999999999999982,5,5.163569740589093,29.81892923131589,0.27124238951015694,881.0080814800999,880.4254444813375,63.41018156412931,0.0046168121571602844,0.9953831878428397,25.135076591450684,5.99182245303757e-14,0.9994593730863086,-28.48980816901116,24.985645969999325,0.4342098534107208,-0.4325561225414276,-0.0205998495221138,128.7335205078125,7.34477970536503,0
7.6211323365569115,5.25,0.04999999999999982,5,5.163584859223524,29.919430700423746,0.2716973795846538,883.2176719529143,882.8631622971985,63.77096686326065,0.004616828996743946,0.995383171003256,25.135222516125907,0,0.999456616347644,-18.639982029715746,24.984793540490614,0.38787734508514404,-0.4156799614429474,-0.02020369842648506,132.08480834960938,7.34477970536503,0
7.6711323373019695,5.3,0.05000000000000071,5,5.163600122547598,29.965662417107083,0.2718413673068101,883.8450570699006,883.6885129588653,64.30036751784702,0.004616836118500444,0.9953831638814996,25.135219087069288,5.99182245303757e-14,0.999455268784497,-9.024403809772513,24.98391315305588,0.4335933029651642,-0.417266845703125,-0.020053435117006302,135.3821563720703,7.34477970536503,0
7.721132338047028,5.35,0.04999999999999982,5,5.163615530537143,30.00735734514718,0.27207360508066203,885.0336307642232,884.8872226527911,64.84196923512653,0.0046168417365534415,0.9953831582634466,25.135207408794486,5.99182245303757e-14,0.9994540346426906,-8.497900469253501,24.983004346233884,0.3692893385887146,-0.406829833984375,-0.018946943804621696,138.55528259277344,7.34477970536503,0
7.771132338792086,5.4,0.04999999999999982,5,5.163631083201516,30.05370968474204,0.27235039893628343,886.4667679141558,886.3035144909343,65.36683448907013,0.004616847824907234,0.9953831521750928,25.1352039938958,0,0.9994526779277161,-9.37438221476775,24.982066676740658,0.4114701449871063,-0.4095763862133026,-0.018885472789406776,141.70263671875,7.34477970536503,0
7.821132339537144,5.45,0.04999999999999982,5,5.163646780539693,30.10338566603762,0.2726426684600114,887.9764845848183,887.8016527014892,65.87906290523722,0.004616854435780381,0.9953831455642196,25.135207040123305,5.99182245303757e-14,0.9994512326148589,-9.97104920332685,24.981099699038907,0.35014963150024414,-0.3972472846508026,-0.01810000091791153,144.73448181152344,7.34477970536503,0
7.871132340282202,5.5,0.04999999999999982,5,5.163662622556652,30.164017590674966,0.2730156086058212,889.917179321541,889.7025929612345,66.35375808929378,0.004616862542984524,0.9953831374570155,25.135233868011824,0,0.9994494986416967,-11.981526204602773,24.980102979764013,0.39141514897346497,-0.40112295746803284,-0.01794290542602539,147.7460174560547,7.34477970536503,0
7.92113234102726,5.55,0.05000000000000071,5,5.1636786092498745,30.228334381466457,0.2733923790786723,891.862283501512,891.6346990819163,66.81424646502525,0.004616871461158656,0.9953831285388414,25.13526994368118,0,0.999447664346505,-12.62942304617135,24.979076090122305,0.3326162099838257,-0.39346304535865784,-0.014739547856152058,150.6435089111328,7.34477970536503,0
7.971132341772318,5.6,0.04999999999999982,5,5.163694740635406,30.29628126926876,0.2737904047757882,893.9171860741309,893.6757534264955,67.26054310351182,0.004616881068370941,0.995383118931629,25.135315789999538,0,0.9994457299773045,-13.313740869962848,24.978018612982567,0.48261621594429016,-0.3945923149585724,-0.012205547653138638,153.59156799316406,7.34477970536503,0
8.021132342517376,5.65,0.04999999999999982,5,5.16371101672234,30.357924447953057,0.27412911025324654,895.6457139643854,895.4277068059297,67.72532536732592,0.004616889906955096,0.9953831100930449,25.135346217000915,5.99182245303757e-14,0.9994439571062199,-12.16073089142826,24.97693013329973,0.4420819878578186,-0.4012450575828552,-0.01049800030887127,156.77227783203125,7.34477970536503,0
8.071132343262434,5.7,0.04999999999999982,5,5.163727437440098,30.41243705103746,0.274425607790884,897.1562275911342,896.9632994246053,68.21149074652865,0.004616897744186469,0.9953831022558135,25.135360753382088,0,0.9994423677975591,-10.903554436477046,24.9758102482553,0.3882036805152893,-0.3995360732078552,-0.007629320956766605,159.95419311523438,7.34477970536503,0
8.121132344007492,5.75,0.04999999999999982,5,5.163744002833624,30.436770588155113,0.2744943181280862,897.4494057906888,897.3618088097596,68.79587341439886,0.004616902689256787,0.9953830973107433,25.135327015751272,5.99182245303757e-14,0.9994415641435784,-5.363112080272534,24.97465858729089,0.3342834413051605,-0.376495361328125,0.0012157736346125603,162.9148712158203,7.34477970536503,0
8.17113234475255,5.8,0.05000000000000071,5,5.163760712903071,30.416455409473453,0.2742706996401499,896.4689502914765,896.0845840427414,69.4723118525881,0.004616906108506408,0.9953830938914936,25.135276799350606,5.99182245303757e-14,0.9994414832466774,-0.39601500744749446,24.973474756109,0.2859145998954773,-0.3422851264476776,0.01047750934958458,165.5846710205078,7.34477970536503,0
8.221132345497608,5.85,0.04999999999999982,5,5.163777567648442,30.412821639376727,0.27429418654006266,896.3816997822784,896.3614040238548,70.14729632259697,0.004616909015514506,0.9953830909844855,25.135226466626364,5.99182245303757e-14,0.9994413951067441,-0.5539532540201973,24.97225838066521,0.24341420829296112,-0.3111571669578552,0.015285962261259556,167.93045043945312,7.34477970536503,0
8.271132346242666,5.9,0.04999999999999982,5,5.163794567069748,30.41642066962858,0.2743287672218866,896.6555870488315,896.467214710356,70.79760166297962,0.0046169120939531195,0.9953830879060469,25.13517792850513,0,0.9994411229099998,-1.8612436318582104,24.97100909985346,0.20751163363456726,-0.2816466987133026,0.01432973612099886,169.9789581298828,7.34477970536503,0
8.321132346987724,5.95,0.04999999999999982,5,5.163811711167131,30.44690332706409,0.274555884172618,898.1843997540205,897.3646577380464,71.35474615070626,0.004616916681853694,0.9953830833181463,25.135152029573078,0,0.9994401529129838,-6.813361809203395,24.96972656127275,0.2004651427268982,-0.254852294921875,0.008742641657590866,171.81593322753906,7.34477970536503,0
8.371132347732782,6,0.04999999999999982,5,5.163828999940351,30.485888694970328,0.2747951054044542,899.5234119239749,898.5133896971064,71.88086419297932,0.0046169225901449154,0.9953830774098551,25.135138491862392,5.99182245303757e-14,0.9994389590620121,-8.309224793698737,24.968410422793454,0.15804517269134521,-0.22702018916606903,0.005976415239274502,173.43112182617188,7.34477970536503,0
8.42113234847784,6.05,0.05000000000000071,5,5.163846433397696,30.541104365326767,0.27514369253036697,901.5373947796894,900.1401866885356,72.34796021364089,0.0046169305550022785,0.9953830694449978,25.135156658384005,0,0.9994373314134138,-11.369209247787406,24.96706035395613,0.12880408763885498,-0.1968994140625,0.0038727170322090387,174.79000854492188,7.34477970536503,0
8.471132349222898,6.1,0.04999999999999982,5,5.163864011523251,30.585034950258322,0.2753724380684994,902.5554223055352,901.4353758873431,72.853162536284,0.004616937588258839,0.9953830624117411,25.13515202203797,0,0.9994360022029034,-9.178158137437942,24.96567603135054,0.10494572669267654,-0.1680297702550888,-0.0024110565427690744,175.9208221435547,7.34477970536503,0
8.521132349967957,6.15,0.04999999999999982,5,5.163881734324333,30.629963579325718,0.27563251068113925,903.9107719985167,902.7595171313659,73.35292780026697,0.0046169445451720035,0.995383055454828,25.13514943464571,5.99182245303757e-14,0.9994346437119792,-9.425684829166308,24.96425715098883,0.08532240986824036,-0.1421813666820526,-0.007506377529352903,176.85067749023438,7.34477970536503,0
8.571132350713015,6.2,0.04999999999999982,5,5.163899601816669,30.65498961708417,0.2757364466303518,904.1735759409278,903.4978377174705,73.92196229787685,0.004616949864454283,0.9953830501355457,25.135117294099643,0,0.9994338100170846,-5.683028844026273,24.96280341305078,0.06944993138313293,-0.12182614207267761,-0.008148415014147758,177.61509704589844,7.34477970536503,0
8.621132351458073,6.25,0.04999999999999982,5,5.1639176139694944,30.674178549906998,0.27583576511514396,904.6110563005927,904.0635938108505,74.51052142136604,0.00461695446744238,0.9953830455325576,25.13507916272954,5.99182245303757e-14,0.9994331284760414,-4.673173552044414,24.961314525011574,0.05651869624853134,-0.10375974327325821,-0.007752264384180307,178.23870849609375,7.34477970536503,0
8.67113235220313,6.3,0.05000000000000071,5,5.163935770798284,30.67171115700179,0.275779339300956,904.0298495314631,903.9916665600064,75.17545084749041,0.004616958342939748,0.9953830416570603,25.13502958418843,5.99182245303757e-14,0.9994330084471554,-0.6966693056841324,24.959790221141475,0.046166207641363144,-0.0884399265050888,-0.006529660429805517,178.74957275390625,7.34477970536503,0
8.721132352948189,6.35,0.04999999999999982,5,5.16395407230292,30.66674662139188,0.2757443983885163,903.8454168447539,903.8155228630811,75.84826801404978,0.004616961803827583,0.9953830381961725,25.13497966388752,0,0.9994329476198851,-0.3995277552893489,24.95823023184522,0.037780117243528366,-0.0748901218175888,-0.005313886795192957,179.16673278808594,7.34477970536503,0
8.771132353693247,6.4,0.04999999999999982,5,5.163972518483472,30.607415157348573,0.27527448790663805,902.0980504218126,900.896853343383,76.52107380656106,0.0046169652832730584,0.995383034716727,25.134929780258176,0,0.9994328933202804,-0.3984979864409758,24.95663430400043,0.031076956540346146,-0.0635375827550888,-0.0036951322108507156,179.509765625,7.34477970536503,0
8.821132354438305,6.45,0.04999999999999982,5,5.163991109339955,30.589114275552124,0.27526948864118383,901.5576560561084,901.2571557285734,77.19289501223216,0.004616968815512032,0.995383031184488,25.134879952991525,0,0.9994328390501604,-0.3984701039067258,24.95500219703814,0.025658223778009415,-0.053619373589754105,-0.0024110565427690744,179.79156494140625,7.34477970536503,0
8.871132355183363,6.5,0.04999999999999982,5,5.164009844872372,30.5487229647377,0.27498493864886764,900.367737132888,899.5886449901427,77.8639015186583,0.004616972400590462,0.9953830275994096,25.134830180954793,5.99182245303757e-14,0.9994327848513794,-0.3978446391503098,24.953333681509434,0.006536240689456463,-0.0402831993997097,-0.0010108679998666048,179.97512817382812,7.34477970536503,0
8.921132355928421,6.55,0.05000000000000071,5,5.164028725080776,30.549321180344073,0.27508544849055694,900.5129744140168,900.3843056044997,78.51341566991057,0.0046169760935944205,0.9953830239064055,25.134781414607687,5.99182245303757e-14,0.9994325863057258,-1.3990331409099628,24.95162853943367,0.007276081945747137,-0.030883781611919403,-0.00021856604143977165,-179.9114532470703,7.34477970536503,0
8.971132356673479,6.6,0.04999999999999982,5,5.164047749965041,30.546281857053437,0.27506047888464136,900.3325863638272,900.2948701889014,79.1761725497475,0.0046169799081240805,0.995383020091876,25.134731958894804,5.99182245303757e-14,0.9994324820147824,-0.6915522053482004,24.949886566983196,0.0056482101790606976,-0.024505615234375,0.0004849433898925781,-179.8319091796875,7.34477970536503,0
9.021132357418537,6.65,0.04999999999999982,5,5.164066919525516,30.555931807790117,0.2751407821995405,900.9176356736526,900.5788130406252,79.79072806722418,0.004616983960522519,0.9953830160394774,25.134687109596825,5.99182245303757e-14,0.9994320511982989,-3.0375120850987214,24.94810756969514,0.004400105681270361,-0.0196227990090847,0.0005532453069463372,-179.77383422851562,7.34477970536503,0
9.071132358163595,6.7,0.04999999999999982,5,5.1640862337616475,30.560598671645696,0.27515728598546235,900.9320280936099,900.7165527989538,80.42352304466057,0.004616988183557005,0.995383011816443,25.13463982734214,5.99182245303757e-14,0.9994317494288978,-2.0741744432619966,24.946291365983654,0.003327245358377695,-0.01574707217514515,0.0006215471657924354,-179.73048400878906,7.34477970536503,0
9.121132358908653,6.75,0.04999999999999982,5,5.164105692673778,30.574705224847722,0.27525688651884794,901.5733509817383,901.1319654333281,81.01937813643981,0.0046169926637549714,0.9953830073362451,25.134597976825205,5.99182245303757e-14,0.9994312028216302,-3.840989644667979,24.944437787134177,0.0026074121706187725,-0.01260375790297985,0.00023222641902975738,-179.69775390625,7.34477970536503,0
9.171132359653711,6.8,0.05000000000000071,5,5.164125296261784,30.579862035398595,0.27526853301320586,901.5100110070773,901.2842888635445,81.64895853230043,0.004616997094058809,0.9953830029059412,25.13455100834051,5.99182245303757e-14,0.9994308882015329,-2.1541177110689924,24.94254667555839,0.002192710293456912,-0.010162352584302425,6.147169915493578e-05,-179.6720428466797,7.34477970536503,0
9.22113236039877,6.85,0.04999999999999982,5,5.164145044525716,30.590742355956,0.275342514643512,901.9705120391633,901.6047477622353,82.2555422721198,0.0046170015607863366,0.9953829984392136,25.134507061032707,5.99182245303757e-14,0.9994304249328732,-3.2490628279089973,24.940617886002713,0.0017206360353156924,-0.0081787109375,-0.00036883019492961466,-179.65170288085938,7.34477970536503,0
9.271132361143827,6.9,0.04999999999999982,5,5.16416493746555,30.589910817931322,0.27531461217331454,901.6677786480816,901.5806755737693,82.90710221814071,0.0046170059210618375,0.9953829940789382,25.134458315058623,0,0.9994302637740715,-1.076421985410498,24.938651285720937,0.0014534322544932365,-0.006591796409338713,-0.0004234717052895576,-179.63528442382812,7.34477970536503,0
9.321132361888885,6.95,0.04999999999999982,5,5.164184975081276,30.593482529487037,0.275344211187889,901.882837399614,901.6857726412907,83.540897178167,0.004617010163005628,0.9953829898369944,25.134410858858757,0,0.9994299892373808,-1.9315784223643306,24.936646753214234,0.0012130666291341186,-0.005310058128088713,-0.0006147170206531882,-179.62184143066406,7.34477970536503,0
9.371132362633944,7,0.04999999999999982,5,5.164205157372921,30.57659805822384,0.2752029206340484,901.1887107567075,900.9347526389047,84.20661828200218,0.004617014446491445,0.9953829855535086,25.13436161622934,5.99182245303757e-14,0.9994299266284958,-0.398446733266291,24.93460417975325,0.000703921657986939,-0.004211425315588713,-0.0003961509501095861,-179.61172485351562,7.34477970536503,0
9.421132363379002,7.05,0.05000000000000071,5,5.164225484340526,30.5754864826039,0.275232238467533,901.2461423909434,901.1555394145887,84.85765500002333,0.0046170186396886454,0.9953829813603113,25.134312914975737,5.99182245303757e-14,0.999429772124769,-1.1035130515317377,24.932523468009492,-0.007066442631185055,-0.00079345703125,-0.0003961509501095861,-179.62889099121094,7.34477970536503,0
9.47113236412406,7.1,0.04999999999999982,5,5.164245955984069,30.549117437880387,0.27502319439079137,900.3789980619671,899.9245009706469,85.52311948248862,0.004617022933029825,0.9953829770669702,25.13426372627123,5.99182245303757e-14,0.9994297140670028,-0.3980635659837392,24.930404533069236,-0.004480072297155857,0.0009886621264740825,-3.415094397496432e-05,-179.66265869140625,7.34477970536503,0
9.521132364869118,7.15,0.04999999999999982,5,5.164266572303519,30.54842138708941,0.27507807900551295,900.4598444112493,900.3578277411794,86.17122066532993,0.004617027235300162,0.9953829727646999,25.134215194740136,5.99182245303757e-14,0.9994295490466005,-1.1919723384553031,24.92824730155843,-0.00367946969345212,0.0015521440654993057,5.464151035994291e-05,-179.6966094970703,7.34477970536503,0
9.571132365614176,7.2,0.04999999999999982,5,5.164287333298883,30.53033116945778,0.2749355418906801,899.8251026326319,899.5510500416468,86.83565756889443,0.004617031642544,0.995382968357456,25.13416608789919,5.99182245303757e-14,0.9994294905357624,-0.39787920800286397,24.926051712366757,-0.00307557568885386,0.001751500298269093,0.0003893207758665085,-179.72747802734375,7.34477970536503,0
9.621132366359234,7.25,0.04999999999999982,5,5.164308238970181,30.532432075653976,0.27499189122550305,900.0540688812512,899.886469368589,87.47125412127406,0.004617036091798468,0.9953829639082016,25.13411837907364,5.99182245303757e-14,0.9994292543128067,-1.7018034305348633,24.923817715742132,-0.0024175525177270174,0.0017217474523931742,0.00036200002068653703,-179.7537841796875,7.34477970536503,0
9.671132367104292,7.3,0.05000000000000071,5,5.164329289317416,30.526912654237464,0.2749460469105214,899.7240377715502,899.7213938660295,88.13449709375105,0.004617040660603966,0.995382959339396,25.13406936392505,0,0.9994291930292263,-0.39791690050593825,24.921545273902552,-0.0019466757075861096,0.001624152879230678,0.0005532453069463372,-179.7755126953125,7.34477970536503,0
9.72113236784935,7.35,0.04999999999999982,5,5.164350484340608,30.53124420766147,0.2749893892748857,900.0708340385085,899.8513779450897,88.75985890164822,0.004617045258864893,0.9953829547411351,25.13402251226188,0,0.9994288999735447,-2.1049693430165894,24.919234360479265,-0.0016771078808233142,0.001521040452644229,0.0003824905725196004,-179.79359436035156,7.34477970536503,0
9.771132368594408,7.4,0.04999999999999982,5,5.16437182403968,30.527976593742927,0.2749554742182341,899.791879624235,899.7553582459301,89.41644064426735,0.004617049984807809,0.9953829500151922,25.13397371802637,5.99182245303757e-14,0.9994288018103287,-0.6823099631017799,24.916884960754828,-0.001317017013207078,0.0013902900973334908,0.00045079246046952903,-179.80850219726562,7.34477970536503,0
9.821132369339466,7.45,0.04999999999999982,5,5.164393308414716,30.532993310943674,0.2750007283367554,900.1382003549761,899.9029047645663,90.03776646351936,0.004617054733501867,0.9953829452664982,25.133927200496373,5.99182245303757e-14,0.9994284912000895,-2.2281444673497655,24.914497071415667,-0.0007935941684991121,0.0011490093311294913,0.00019807547505479306,-179.8197021484375,7.34477970536503,0
9.871132370084524,7.5,0.04999999999999982,5,5.16441493746564,30.529392936263715,0.2749629549414948,899.8259734290483,899.7971144016673,90.69503266442696,0.004617059573952263,0.9953829404260477,25.133878431777248,5.99182245303757e-14,0.9994284015455619,-0.6227444764618965,24.912070700375295,-0.0008381697698496282,0.001017596572637558,0.00023222641902975738,-179.8286590576172,7.34477970536503,0
9.921132370829582,7.55,0.05000000000000071,5,5.164436711192494,30.53320688236052,0.2749996544418983,900.1168630568402,899.9092426844542,91.32029434023015,0.004617064391214429,0.9953829356087855,25.133831500005897,0,0.9994281217552494,-2.01305068167269,24.909605866844345,-0.0007147158030420542,0.0009147102246060967,6.830188794992864e-06,-179.8362274169922,7.34477970536503,0
9.97113237157464,7.6,0.04999999999999982,5,5.1644586295952735,30.526022502593342,0.2749380719360144,899.6978319768513,899.6692734414913,91.98131154217523,0.004617069304204929,0.9953829306957951,25.133782685048914,5.99182245303757e-14,0.9994280587718359,-0.3979645134983611,24.907102600926578,-0.00031118179322220385,0.0007137471693567932,0.00010245283192489296,-179.84169006347656,7.34477970536503,0
10.021132372319698,7.65,0.04999999999999982,5,5.164480692673989,30.52813771961268,0.27496738582299696,899.928764309606,899.759899174768,92.6127530680589,0.0046170741649711544,0.9953829258350289,25.133735225290764,5.99182245303757e-14,0.9994278225248212,-1.711710106077549,24.904560943876504,-0.003953573293983936,0.0017800112254917622,-6.147169915493578e-05,-179.85723876953125,7.34477970536503,0
10.071132373064756,7.7,0.04999999999999982,5,5.1645029004286025,30.51551795244077,0.27486525632459224,899.3883601337959,899.2460368209831,93.2733224507151,0.004617079145745565,0.9953829208542544,25.13368644824692,0,0.9994277611965736,-0.397822182114388,24.901980947489335,-0.0026157160755246878,0.0022057942114770412,0.00011611320951487869,-179.87913513183594,7.34477970536503,0
10.121132373809814,7.75,0.04999999999999982,5,5.164525252859163,30.517073410623425,0.27490295849162183,899.5904107894063,899.433818332542,93.90604794184364,0.00461708409855744,0.9953829159014426,25.133638864439888,5.99182245303757e-14,0.9994275393245878,-1.6161678795085794,24.899362674475356,-0.0019945111125707626,0.00208670343272388,1.3660377589985728e-05,-179.89935302734375,7.34477970536503,0
10.171132374554873,7.8,0.05000000000000071,5,5.164547749965652,30.50438986203905,0.27480153504459803,899.0603796996676,898.9185306266315,94.56593576882268,0.004617089170296723,0.9953829108297033,25.13359012847195,5.99182245303757e-14,0.9994274785325729,-0.3976967815331506,24.896706197766946,-0.0017329364782199264,0.0019091597059741616,0.00021856604143977165,-179.91714477539062,7.34477970536503,0
10.22113237529993,7.85,0.04999999999999982,5,5.164570391748059,30.506469937649815,0.27484324077896805,899.2905150553734,899.1212807191824,95.19522509449101,0.004617094233968037,0.995382905766032,25.13354274484169,0,0.9994272433957156,-1.7143529800851907,24.89401160095923,-0.001201000763103366,0.0016251890920102596,0.00012977358710486442,-179.9315948486328,7.34477970536503,0
